station_name,wigos_station_identifier,traditional_station_identifier,facility_type,latitude,longitude,elevation,territory_name,wmo_region
ANGUILLA,0-20000-0-78846,78846,Land (fixed),18.2,-63.05,29,Anguilla,IV
Coolidge Field,0-20008-0-CLF,CLF,Land (fixed),17.09000015,-61.81000137,10,Antigua and Barbuda,IV
VC BIRD INT'L AIRPORT ANTIGUA,0-20000-0-78862,78862,Land (fixed),17.11666667,-61.78333333,8,Antigua and Barbuda,IV
ABRAHAM'S BAY,0-20000-0-78109,78109,Land (fixed),22.36666667,-72.96666667,1,Bahamas,IV
ABRAHAM'S BAY,0-20000-0-78108,78108,Land (fixed),22.38333333,-73.01666667,0,Bahamas,IV
ALICE TOWN,0-20000-0-78070,78070,Land (fixed),25.73333333,-79.3,2,Bahamas,IV
CHURCH GROVE,0-20000-0-78104,78104,Land (fixed),22.75,-74.23333333,12,Bahamas,IV
CLARENCE TOWN,0-20000-0-78095,78095,Land (fixed),23.1,-74.96666667,7,Bahamas,IV
COCKBURN TOWN,0-20000-0-78088,78088,Land (fixed),24.05,-74.53333333,3,Bahamas,IV
COCKBURN TOWN,0-20000-0-78089,78089,Land (fixed),24.06666667,-74.5,0,Bahamas,IV
COLONEL HILL,0-20000-0-78103,78103,Land (fixed),22.75,-74.23333333,12,Bahamas,IV
CONGO TOWN,0-20000-0-78084,78084,Land (fixed),24.15,-77.56666667,0,Bahamas,IV
DEADMAN'S CAY,0-20000-0-78094,78094,Land (fixed),23.1,-74.96666667,7,Bahamas,IV
DUNCAN TOWN,0-20000-0-78101,78101,Land (fixed),22.2,-75.73333333,11,Bahamas,IV
DUNMORE TOWN,0-20000-0-78077,78077,Land (fixed),25.5,-76.63333333,14,Bahamas,IV
FREEPORT,0-20000-0-78062,78062,Land (fixed),26.55,-78.7,2,Bahamas,IV
GEORGE TOWN,0-20000-0-78092,78092,Land (fixed),23.5,-75.76666667,2,Bahamas,IV
GREEN TURTLE CAY,0-20000-0-78066,78066,Land (fixed),26.75,-77.33333333,13,Bahamas,IV
KEMP'S BAY,0-20000-0-78086,78086,Land (fixed),24.08333333,-77.55,2,Bahamas,IV
MARSH HARBOUR,0-20000-0-78065,78065,Land (fixed),26.51666667,-77.06666667,0,Bahamas,IV
MATTHEW TOWN,0-20000-0-78120,78120,Land (fixed),20.95,-73.65,0,Bahamas,IV
MATTHEW TOWN,0-20000-0-78121,78121,Land (fixed),20.95,-73.68333333,2,Bahamas,IV
MOSS TOWN,0-20000-0-78091,78091,Land (fixed),23.55,-75.86666667,0,Bahamas,IV
NASSAU AIRPORT NEW PROVIDENCE,0-20000-0-78073,78073,Land (fixed),25.05,-77.46666667,0,Bahamas,IV
NORTH ELEUTHERA,0-20000-0-78075,78075,Land (fixed),25.48333333,-76.66666667,0,Bahamas,IV
ROCK SOUND,0-20000-0-78080,78080,Land (fixed),24.75,-76.15,0,Bahamas,IV
SOUTH BIMINI,0-20000-0-78069,78069,Land (fixed),25.7,-79.25,0,Bahamas,IV
THE BIGHT,0-20000-0-78087,78087,Land (fixed),24.28333333,-75.41666667,3,Bahamas,IV
WEST END,0-20000-0-78061,78061,Land (fixed),26.7,-78.96666667,2,Bahamas,IV
APPLEWHAITES 3D PAWS AWS,0-52-130-0038,0038,Land (fixed),13.1578,-59.5767,32.6,Barbados,IV
ASHTON HALL  3D PAW,0-52-130-0029,0029,Land (fixed),13.2574,-59.6279,65,Barbados,IV
BAWDENS 3D PAW AWS,0-52-130-0031,0031,Land (fixed),13.2413,-59.5907,104,Barbados,IV
BELLE 3D PAW AWS,0-52-130-0036,0036,Land (fixed),13.1149,-59.5924,44,Barbados,IV
BELLE B.W.A NESA AWS,0-52-130-0003,0003,Land (fixed),13.1153,-59.5927,33,Barbados,IV
BMS CAD 3D PAWS,0-52-130-0020,0020,Land (fixed),13.0852,-59.4872,72.3,Barbados,IV
BMS Sutron AWS Charnocks Christ Church,0-52-130-0001,0001,Land (fixed),13.0853,-59.4872,56,Barbados,IV
BOWMANSTON 3D PAW,0-52-130-0025,0025,Land (fixed),13.1702,-59.5063,210,Barbados,IV
CAMBRIDGE 3D PAW AWS,0-52-130-0030,0030,Land (fixed),13.2276,-59.547,144.3,Barbados,IV
CARIBBEAN METEOROLOGICAL INSTITUTE,0-20000-0-78955,78955,Land (fixed),13.15,-59.61666667,0,Barbados,IV
CONSTANT 3D PAW AWS,0-52-130-0037,0037,Land (fixed),13.1213,-59.5578,64.3,Barbados,IV
G.A.I.A RUNWAY CASELLA AWS,0-52-130-0002,0002,Land (fixed),13.0816,-59.4764,52,Barbados,IV
GOLDEN RIDGE 3D PAW AWS,0-52-130-0023,0023,Land (fixed),13.1644,-59.5413,297.3,Barbados,IV
GRANTLEY ADAMS,0-52-130-78954,78954,Air (fixed),13.085847,-59.487013,56.6,Barbados,IV
GREENLAND 3D PAW AWS,0-52-130-0032,0032,Land (fixed),13.2576,-59.5772,31.3,Barbados,IV
HALF ACRE 3D PAW,0-52-130-0027,0027,Land (fixed),13.3016,-59.6158,83.6,Barbados,IV
HOLDERS HILL 3D PAW AWS,0-52-130-0034,0034,Land (fixed),13.1625,-59.6335,32.6,Barbados,IV
LAKES FOLLY 3D PAW AWS,0-52-130-0021,0021,Land (fixed),13.1038,-59.6211,21,Barbados,IV
LOWER CARLTON 3D PAW,0-52-130-0026,0026,Land (fixed),13.2216,-59.6338,61,Barbados,IV
MIN AGR GRAEME HALL SUTRON AWS,0-52-130-0055,0055,Land (fixed),13.0761,-59.5761,65,Barbados,IV
MIN OF AGR GRAEME HALL 3D PAW AWS,0-52-130-0039,0039,Land (fixed),13.0761,-59.4872,37.3,Barbados,IV
MOUNT PLEASANT 3D PAW AWS,0-52-130-0041,0041,Land (fixed),13.1588,-59.4748,193.6,Barbados,IV
Ministry of Agriculture HOMES AWS,0-52-13000-5,5,Land (fixed),13.1105,-59.4872,47,Barbados,IV
RAWINSONDE STATION SUTRON AWS,0-52-130-0004,0004,Land (fixed),13.0716,-59.4922,46,Barbados,IV
ROCK HALL 3D PAW AWS,0-52-130-0033,0033,Land (fixed),13.2365,-59.6004,290,Barbados,IV
Ragged Point,0-20008-0-RPB,RPB,Land (fixed),13.17000008,-59.43000031,45,Barbados,IV
STURGES 3D PAW AWS,0-52-130-0035,0035,Land (fixed),13.1888,-59.5753,30,Barbados,IV
THREE HOUSES 3D PAW AWS,0-52-130-0040,0040,Land (fixed),13.1442,-59.4436,36.3,Barbados,IV
BELIZE/LANDIVAR,0-20000-0-78584,78584,Land (fixed),17.51666667,-88.2,0,Belize,IV
BELIZE/PHILLIP GOLDSTON INTL. AIRPORT,0-20000-0-78583,78583,Land (fixed),17.53333333,-88.3,5,Belize,IV
HALF MOON CAYE,0-20000-0-78588,78588,Land (fixed),17.18333333,-87.5,0,Belize,IV
HUNTING CAYE,0-20000-0-78596,78596,Land (fixed),16.1,-88.25,0,Belize,IV
BEEF ISLAND,0-20000-0-78550,78550,Land (fixed),18.45,-64.53333333,4,British Virgin Islands,IV
14G,0-124-15007-14G,14G,Land (fixed),48.49417,-123.615,493,Canada,IV
31N,0-124-15007-31N,31N,Land (fixed),48.52944,-123.639,606,Canada,IV
4RW6,0-124-15007-4RW6,4RW6,Land (fixed),48.58583,-123.751,675,Canada,IV
ABBOTSFORD A,0-20000-0-71108,71108,Land (fixed),49.02527778,-122.36,59.1,Canada,IV
ABEE AGDM,0-20000-0-71285,71285,Land (fixed),54.28333333,-112.9666667,664,Canada,IV
ACADIA VALLEY,0-20000-0-71048,71048,Land (fixed),51.06611111,-110.3169444,735,Canada,IV
AGASSIZ RCS,0-20000-0-71113,71113,Land (fixed),49.242793,-121.759712,17.66,Canada,IV
ALBERT HALL AGCM,0-20000-0-71005,71005,Land (fixed),53.11333333,-111.1811111,658,Canada,IV
ALBH WCDA-PGC,0-124-10010-927000,927000,Land (fixed),48.389777,-123.487453,50.24,Canada,IV
ALDERSVILLE,0-124-0-73081,73081,Land (fixed),44.82667,-64.5089,237,Canada,IV
ALERT CLIMATE,0-20000-0-71355,71355,Land (fixed),82.493841,-62.352153,60.2,Canada,IV
ALERT UA,0-20001-0-71082,71082,Land (fixed),82.5,-62.33333333,65.4,Canada,IV
ALGO CACS-GSD,0-124-10010-883160,883160,Land (fixed),45.955791,-78.071363,237.03,Canada,IV
ALGONQUIN PARK EAST GATE,0-20000-0-71581,71581,Land (fixed),45.53333333,-78.25,398.92,Canada,IV
ALLIANCE AGCM,0-20000-0-71006,71006,Land (fixed),52.31527778,-111.7786111,737,Canada,IV
ALRT CACS-CHS,0-124-10010-M029001,M029001,Land (fixed),82.494281,-62.340446,59.27,Canada,IV
AMQUI,0-20000-0-71386,71386,Land (fixed),48.472108,-67.434564,166.02,Canada,IV
ANDREW AGDM,0-20000-0-71286,71286,Land (fixed),53.91694444,-112.2791667,625,Canada,IV
ARCTIC BAY CS,0-20000-0-71592,71592,Land (fixed),72.98333333,-85,0.28,Canada,IV
ARGENTIA,0-20000-0-71807,71807,Land (fixed),47.2939,-53.9933,19,Canada,IV
ARMSTRONG (AUT),0-20000-0-71841,71841,Land (fixed),50.28333333,-88.9,322.5,Canada,IV
ARVIAT A,0-20000-0-71174,71174,Land (fixed),61.09388889,-94.07166667,10.4,Canada,IV
ARVIAT CLIMATE,0-20000-0-71322,71322,Land (fixed),61.08333333,-94.06666667,8.46,Canada,IV
ASHCROFT,0-20000-0-71681,71681,Land (fixed),50.7,-121.2666667,327,Canada,IV
ASSINIBOIA AIRPORT,0-20000-0-71487,71487,Land (fixed),49.71666667,-105.9333333,722.47,Canada,IV
ATHABASCA AGCM,0-20000-0-71271,71271,Land (fixed),54.63472222,-113.3819444,635,Canada,IV
ATIKOKAN (AUT),0-20000-0-71747,71747,Land (fixed),48.75,-91.61666667,387.01,Canada,IV
ATLEE AGCM,0-20000-0-71986,71986,Land (fixed),50.81,-111.0055556,795,Canada,IV
ATLIN-WCDA-PGC,0-124-10010-987009,987009,Land (fixed),59.589479,-133.714447,788.09,Canada,IV
ATMORE AGDM,0-20000-0-71287,71287,Land (fixed),54.78166667,-112.825,574,Canada,IV
AULAVIK NATIONAL PARK,0-20000-0-71974,71974,Land (fixed),74.13333333,-119.9833333,32,Canada,IV
AZURE,0-20000-0-71981,71981,Land (fixed),50.51194444,-114.0130556,1143,Canada,IV
Abbotsford,0-20008-0-ABT,ABT,Land (fixed),49.0113,-122.3355,60,Canada,IV
Aiken Lake,0-124-15006-4A30P,4A30P,Land (fixed),56.43666667,-125.7416667,970,Canada,IV
Alert,0-20008-0-ALT,ALT,Land (fixed),82.49914551,-62.34152603,185,Canada,IV
Alert Magnetic Observatory,0-124-10001-ALE,ALE,Land (fixed),82.496,-62.354,60,Canada,IV
Algoma,0-20008-0-ALG,ALG,Land (fixed),47.03333282,-84.3666687,411,Canada,IV
Alkali Lake AGRI,0-124-15005-AGAL001,AGAL001,Land (fixed),51.79028,-121.251,677,Canada,IV
Asquith,0-20008-0-ASQ,ASQ,Land (fixed),52.13999939,-107.0599976,519,Canada,IV
Attawapiskat,0-124-42001-71653,71653,Land (fixed),52.92759,-82.432,9.1,Canada,IV
Azure River,0-124-15003-1E08P,1E08P,Land (fixed),52.59567,-119.724,1620,Canada,IV
BACCARO PT,0-20000-0-71920,71920,Land (fixed),43.45,-65.46666667,2.96,Canada,IV
BACHELORS ISLAND MARINE,0-20000-0-71143,71143,Land (fixed),51.75,-99.9,255.9,Canada,IV
BADGER (AUT),0-20000-0-71400,71400,Land (fixed),48.96666667,-56.06666667,102.7,Canada,IV
BAIE RACS-GSD,0-124-10010-M012001,M012001,Land (fixed),49.186816,-68.263326,53.08,Canada,IV
BAIE-COMEAU,0-124-0-71890,71890,Land (fixed),49.13507,-68.2025,20.23,Canada,IV
BAIE-COMEAU,0-20000-0-71691,71691,Land (fixed),49.1325,-68.20444444,21.6,Canada,IV
BAIE-COMEAU,0-20000-0-71829,71829,Land (fixed),49.259088,-68.145632,130.53,Canada,IV
BAKE CACS-GSD,0-124-10010-M009005,M009005,Land (fixed),64.317811,-96.002326,46.48,Canada,IV
BAKER LAKE A,0-20000-0-71926,71926,Land (fixed),64.29888889,-96.07777778,18.6,Canada,IV
BAKER LAKE CLIMATE,0-20000-0-71356,71356,Land (fixed),64.31666667,-96,48.88,Canada,IV
BAKER LAKE UA,0-20001-0-71926,71926,Land (fixed),64.31666667,-96,50.8,Canada,IV
BALLENAS ISLAND,0-20000-0-71769,71769,Land (fixed),49.350544,-124.160498,14.67,Canada,IV
BAMF WCDA-PGC,0-124-10010-M027005,M027005,Land (fixed),48.835325,-125.135087,29.01,Canada,IV
BANCROFT AUTO,0-20000-0-71294,71294,Land (fixed),45.06666667,-77.86666667,330.29,Canada,IV
BANFF CS,0-20000-0-71122,71122,Land (fixed),51.18333333,-115.55,1396.9,Canada,IV
BANQUEREAU BANK,0-124-600-4400139,4400139,Sea (fixed),44.24,-57.10333,0,Canada,IV
BARNWELL AGDM,0-20000-0-71346,71346,Land (fixed),49.8,-112.3,824.24,Canada,IV
BARONS AGCM,0-20000-0-71007,71007,Land (fixed),50.02583333,-113.2244444,967,Canada,IV
BARRAGE TEMISCAMINGUE,0-20000-0-71732,71732,Land (fixed),46.709657,-79.100838,180.4,Canada,IV
BARRHEAD CS,0-20000-0-71061,71061,Land (fixed),54.095269,-114.451272,646.77,Canada,IV
BARRIE-ORO,0-20000-0-71314,71314,Land (fixed),44.48444,-79.546408,288.81,Canada,IV
BAS CARAQUET,0-20000-0-71598,71598,Land (fixed),47.8,-64.83333333,5,Canada,IV
BASSANO AGCM,0-20000-0-71008,71008,Land (fixed),50.8925,-112.465,807,Canada,IV
BATHURST A,0-20000-0-71574,71574,Land (fixed),47.62916667,-65.74833333,58.8,Canada,IV
BATHURST INLET,0-20000-0-71874,71874,Land (fixed),66.83333333,-108,5.18,Canada,IV
BCOV WCDA-PGC,0-124-10010-M007003,M007003,Land (fixed),50.544277,-126.842624,51.78,Canada,IV
BCRK WCDA-PGC,0-124-10010-M108000,M108000,Land (fixed),62.41428,-140.860395,705.91,Canada,IV
BEATRICE CLIMATE,0-20000-0-71694,71694,Land (fixed),45.13333333,-79.38333333,283.13,Canada,IV
BEAUCEVILLE,0-20000-0-71323,71323,Land (fixed),46.204894,-70.785097,228.79,Canada,IV
BEAUPORT,0-20000-0-71578,71578,Land (fixed),46.83333333,-71.18333333,9.06,Canada,IV
BEAVER ISLAND (AUT),0-20000-0-71403,71403,Land (fixed),44.81666667,-62.33333333,6,Canada,IV
BEAVER MINES,0-20000-0-71304,71304,Land (fixed),49.4679,-114.175,1257,Canada,IV
BEAVERLODGE RCS,0-20000-0-71230,71230,Land (fixed),55.18333333,-119.3833333,745,Canada,IV
BEDFORD BASIN,0-124-12001-71329,71329,Land (fixed),44.70611,-63.6333,3,Canada,IV
BEDFORD RANGE,0-124-12001-71325,71325,Land (fixed),44.74556,-63.6603,8,Canada,IV
BEISEKER AGCM,0-20000-0-71009,71009,Land (fixed),51.37861111,-113.3572222,896,Canada,IV
BELLA BELLA,0-20000-0-71582,71582,Land (fixed),52.185,-128.1566667,43,Canada,IV
BELLA COOLA AIRPORT,0-124-0-71533,71533,Land (fixed),52.38851,-126.587,36.4,Canada,IV
BELLA COOLA-WCDA-PGC,0-124-10010-987012,987012,Land (fixed),52.38826,-126.589235,37.02,Canada,IV
BELLEVILLE QUINTE,0-124-0-73042,73042,Land (fixed),44.15936,-77.4398,94.04,Canada,IV
BELLSHILL AGCM,0-20000-0-71010,71010,Land (fixed),52.58222222,-111.4652778,721,Canada,IV
BERENS RIVER CS,0-20000-0-71158,71158,Land (fixed),52.3597,-97.022,221.9,Canada,IV
BERNARD HARBOUR,0-124-12001-73231,73231,Land (fixed),68.75528,-114.94,62,Canada,IV
BERRY HILL,0-20000-0-71588,71588,Land (fixed),49.619944,-57.9197778,116,Canada,IV
BIG TROUT LAKE A,0-20000-0-71675,71675,Land (fixed),53.81777778,-89.89694444,222.5,Canada,IV
BIG TROUT LAKE READAC,0-20000-0-71844,71844,Land (fixed),53.81555556,-89.89555556,222.2,Canada,IV
BIG TROUT LAKE,0-20000-0-71208,71208,Land (fixed),53.8,-89.88333333,222.5,Canada,IV
BIG VALLEY AGCM,0-20000-0-71011,71011,Land (fixed),51.99777778,-112.8025,870,Canada,IV
BLACK DIAMOND,0-20000-0-71982,71982,Land (fixed),50.70666667,-114.1516667,1156,Canada,IV
BLACKCOMB BASE SLIDING CENTER,0-20000-0-71756,71756,Land (fixed),50.1025,-122.9364,937,Canada,IV
BLOOD TRIBE AGDM,0-20000-0-71517,71517,Land (fixed),49.56666667,-113.05,980,Canada,IV
BLUE RIVER CS,0-20000-0-71883,71883,Land (fixed),52.11666667,-119.2833333,678.63,Canada,IV
BNAB WCDA-PGC,0-124-10010-M147001,M147001,Land (fixed),53.493254,-130.636982,18.35,Canada,IV
BNKB WCDA-PGC,0-124-10010-M147003,M147003,Land (fixed),53.331485,-129.900884,422.55,Canada,IV
BODO AGDM,0-20000-0-71214,71214,Land (fixed),52.12416667,-110.1013889,687,Canada,IV
BONAVISTA,0-20000-0-71178,71178,Land (fixed),48.66666667,-53.1,25.6,Canada,IV
BONILLA ISLAND (AUT),0-20000-0-71484,71484,Land (fixed),53.48333333,-130.6333333,12.52,Canada,IV
BONNARD 1,0-20000-0-71383,71383,Land (fixed),50.71666667,-71,497,Canada,IV
BORDEN AWOS,0-20000-0-71534,71534,Land (fixed),44.26666667,-79.9,222.2,Canada,IV
BOW ISLAND IRRIGATION AGDM,0-20000-0-71519,71519,Land (fixed),49.86666667,-111.3833333,799,Canada,IV
BOW ISLAND,0-20000-0-71231,71231,Land (fixed),49.73333333,-111.45,816.6,Canada,IV
BOW VALLEY,0-20000-0-71232,71232,Land (fixed),51.0831,-115.066,1320,Canada,IV
BRANDON A,0-20000-0-71140,71140,Land (fixed),49.91,-99.95194444,409.4,Canada,IV
BRANDON RCS,0-20000-0-71136,71136,Land (fixed),49.903444,-99.945586,406.5,Canada,IV
BRANTFORD AIRPORT,0-124-0-71602,71602,Land (fixed),43.1375,-80.3314,245.31,Canada,IV
BRATT'S LAKE CLIMATE,0-20000-0-71569,71569,Land (fixed),50.2006,-104.71,580,Canada,IV
BRATT'S LAKE UA,0-20001-0-71569,71569,Land (fixed),50.2,-104.7,580,Canada,IV
BRAY ISLAND,0-124-12001-73232,73232,Land (fixed),69.22389,-77.2303,15,Canada,IV
BRETON PLOTS,0-20000-0-71233,71233,Land (fixed),53.08944444,-114.4408333,851.5,Canada,IV
BREVOORT ISLAND,0-20000-0-71097,71097,Land (fixed),63.33972222,-64.14583333,376,Canada,IV
BRIER ISLAND,0-124-0-71988,71988,Land (fixed),44.28566,-66.3424,15.6,Canada,IV
BROADVIEW,0-20000-0-71861,71861,Land (fixed),50.3681,-102.5708,599.8,Canada,IV
BROCKET AGDM,0-20000-0-71341,71341,Land (fixed),49.61666667,-113.8166667,1072.73,Canada,IV
BROCKVILLE CLIMATE,0-20000-0-71161,71161,Land (fixed),44.63333333,-75.75,121.04,Canada,IV
BROOKS,0-20000-0-71457,71457,Land (fixed),50.55,-111.8333333,748.57,Canada,IV
BROWNVALE AGCM,0-20000-0-71283,71283,Land (fixed),56.11777778,-117.8863889,748,Canada,IV
BUCTOUCHE CDA CS,0-20000-0-71666,71666,Land (fixed),46.41666667,-64.76666667,43,Canada,IV
BUFFALO NARROWS (AUT),0-20000-0-71077,71077,Land (fixed),55.83333333,-108.4166667,440.1,Canada,IV
BULLHORN COULEE RESERVOIR,0-20000-0-71839,71839,Land (fixed),49.29527778,-113.3586111,1115,Canada,IV
BULLHORN HEADWATERS,0-20000-0-71016,71016,Land (fixed),49.1525,-113.5505556,1326,Canada,IV
BURGEO NL,0-20000-0-71152,71152,Land (fixed),47.6,-57.6,6.7,Canada,IV
BURLINGTON PIERS (AUT),0-20000-0-71437,71437,Land (fixed),43.3,-79.8,77,Canada,IV
BURNS LAKE DECKER LAKE,0-20000-0-71952,71952,Land (fixed),54.3832,-125.9587,713.2,Canada,IV
BURWASH A,0-20000-0-71001,71001,Land (fixed),61.37055556,-139.04,805.3,Canada,IV
BURWASH AIRPORT AUTO,0-124-0-71195,71195,Land (fixed),61.37013,-139.032,798.67,Canada,IV
BUSBY AGCM,0-20000-0-71284,71284,Land (fixed),53.93083333,-113.9216667,714,Canada,IV
BUTB WCDA-PGC,0-124-10010-M147005,M147005,Land (fixed),53.063004,-128.463733,1097.7,Canada,IV
Baker Lake,0-20008-0-BLK,BLK,Land (fixed),64.331665,-96.010433,49,Canada,IV
Baker Lake Magnetic Observatory,0-124-10001-BLC,BLC,Land (fixed),64.318,-96.012,30,Canada,IV
Barkerville,0-124-15003-1A03P,1A03P,Land (fixed),53.05683,-121.491,1480,Canada,IV
Bay D Espoir-B,0-20008-0-BEB,BEB,Land (fixed),47.98833466,-55.81888962,190,Canada,IV
Bay D'Espoir,0-20008-0-BAB,BAB,Land (fixed),47.99166489,-55.81694031,190,Canada,IV
Behchoko,0-20008-0-BCK,BCK,Land (fixed),62.797934,-115.918255,184,Canada,IV
Bessborough 237 Road,0-124-15003-450,450,Land (fixed),55.791944,-120.483611,665,Canada,IV
Birch Bank Golf Course,0-124-15003-97,97,Land (fixed),49.158056,-117.733056,483,Canada,IV
Blackwall Peak,0-124-15003-2G03P,2G03P,Land (fixed),49.0945,-120.771,1940,Canada,IV
Bonaparte AGRI,0-124-15005-AGBP002,AGBP002,Land (fixed),50.74472,-121.279,446,Canada,IV
Bonner Lake,0-20008-0-BON,BON,Land (fixed),49.38333511,-82.1166687,245,Canada,IV
Boss Mountain Mine,0-124-15003-1C20P,1C20P,Land (fixed),52.10683,-120.868,1460,Canada,IV
Boundary Bay AGRI,0-124-15005-AGBB003,AGBB003,Land (fixed),49.0791,-122.986,8,Canada,IV
Bow Hut,0-124-34001-204,204,Land (fixed),51.63518,-116.49028,2421,Canada,IV
Brandon Magnetic Observatory,0-124-10001-BRD,BRD,Land (fixed),49.87,-99.74,380,Canada,IV
Bratt's Lake,0-20008-0-BRA,BRA,Land (fixed),50.201631,-104.711259,580,Canada,IV
Brenda Mines,0-124-15003-2F18P,2F18P,Land (fixed),49.86236,-119.982,1460,Canada,IV
Burns Lake Fire Centre,0-124-15003-104,104,Land (fixed),54.230833,-125.764444,710,Canada,IV
Burns Lake Sheraton East,0-124-15003-439,439,Land (fixed),54.1527,-125.4495,679,Canada,IV
Burnt Bridge Creek,0-124-15003-3C08P,3C08P,Land (fixed),52.481,-126.248,1330,Canada,IV
CADOGAN AGCM,0-20000-0-71012,71012,Land (fixed),52.33416667,-110.51,690,Canada,IV
CAGS RACS-GSD,0-124-10010-962000,962000,Land (fixed),45.585011,-75.807324,268.66,Canada,IV
CALGARY INT'L A,0-20000-0-71877,71877,Land (fixed),51.11388889,-114.0202778,1084.1,Canada,IV
CALGARY INT'L CS,0-20000-0-71393,71393,Land (fixed),51.109444,-114.000277,1082.43,Canada,IV
CALLAGHAN VALLEY,0-20000-0-71688,71688,Land (fixed),50.13333333,-123.1,884,Canada,IV
CAM FOUR,0-20000-0-71918,71918,Land (fixed),68.43694444,-89.72583333,328,Canada,IV
CAMBRIDGE BAY A,0-20000-0-71925,71925,Land (fixed),69.10805556,-105.1383333,31.09,Canada,IV
CAMBRIDGE BAY GSN,0-20000-0-71288,71288,Land (fixed),69.106583,-105.115652,18.69,Canada,IV
CAMBRIDGE BAY UA,0-20001-0-71925,71925,Land (fixed),69.13333333,-105.0666667,25.1,Canada,IV
CAMERON FALLS (AUT),0-20000-0-71291,71291,Land (fixed),49.15,-88.33333333,232.6,Canada,IV
CAMPSIE AUTO,0-20000-0-71636,71636,Land (fixed),54.11666667,-114.6666667,647,Canada,IV
CAMROSE,0-20000-0-71254,71254,Land (fixed),53.03333333,-112.8166667,739,Canada,IV
CAP-CHAT,0-20000-0-71428,71428,Land (fixed),49.1,-66.65,3.28,Canada,IV
CAP-D'ESPOIR,0-20000-0-71429,71429,Land (fixed),48.419388,-64.316944,14.5,Canada,IV
CAP-MADELEINE,0-20000-0-71425,71425,Land (fixed),49.25083333,-65.32472222,29,Canada,IV
CAP-ROUGE,0-20000-0-71186,71186,Land (fixed),48.3742,-70.5353,7.3,Canada,IV
CAP-TOURMENTE,0-20000-0-71384,71384,Land (fixed),47.0786,-70.7808,5.57,Canada,IV
CAPE DORSET A,0-20000-0-71366,71366,Land (fixed),64.23027778,-76.525,48.2,Canada,IV
CAPE DORSET A,0-20000-0-71910,71910,Land (fixed),64.23027778,-76.525,48.2,Canada,IV
CAPE DYER,0-20000-0-71094,71094,Land (fixed),66.65,-61.38333333,725.1,Canada,IV
CAPE HOOPER,0-20000-0-71093,71093,Land (fixed),68.4725,-66.81527778,390.1,Canada,IV
CAPE KAKKIVIAK,0-20000-0-71176,71176,Land (fixed),59.985,-64.165,551.1,Canada,IV
CAPE KIGLAPAIT,0-20000-0-71177,71177,Land (fixed),57.13583333,-61.47555556,834.1,Canada,IV
CAPE LIVERPOOL,0-124-0-76000,76000,Land (fixed),73.66804,-78.2947,1.94,Canada,IV
CAPE MERCY,0-20000-0-71975,71975,Land (fixed),64.95777778,-63.57777778,582.6,Canada,IV
CAPE PARRY A,0-20000-0-71948,71948,Land (fixed),70.16666667,-124.7166667,86.6,Canada,IV
CAPE PEEL WEST,0-20000-0-71064,71064,Land (fixed),69.03583333,-107.8230556,165.3,Canada,IV
CAPE PROVIDENCE,0-124-0-76001,76001,Land (fixed),74.4566,-112.16,4.38,Canada,IV
CAPE RACE (AUT),0-20000-0-71800,71800,Land (fixed),46.65,-53.06666667,26.5,Canada,IV
CAPE ST JAMES CS,0-20000-0-71107,71107,Land (fixed),51.93333333,-131,87.8,Canada,IV
CAPE WHITTLE,0-20000-0-71374,71374,Land (fixed),50.162833,-60.061603,8.52,Canada,IV
CARBERRY CS,0-20000-0-71170,71170,Land (fixed),49.905637,-99.357092,382.94,Canada,IV
CARDSTON,0-20000-0-71153,71153,Land (fixed),49.2,-113.2833333,1136,Canada,IV
CARIBOU ISLAND (AUT),0-20000-0-71433,71433,Land (fixed),47.33943,-85.826017,187,Canada,IV
CARIBOU POINT (AUT),0-20000-0-71415,71415,Land (fixed),45.76422,-62.680444,6,Canada,IV
CARMACKS CS,0-20000-0-71039,71039,Land (fixed),62.115,-136.192,563,Canada,IV
CARMAN U OF M CS,0-20000-0-71147,71147,Land (fixed),49.48333333,-98.01666667,267.04,Canada,IV
CARTWRIGHT A,0-20000-0-71818,71818,Land (fixed),53.70833333,-57.035,14.3,Canada,IV
CARWAY,0-20000-0-71488,71488,Land (fixed),48.98333333,-113.3666667,1354,Canada,IV
CATHEDRAL POINT (AUT),0-20000-0-71482,71482,Land (fixed),52.18333333,-127.4666667,25.7,Canada,IV
CAUSAPSCAL AIRPORT,0-124-0-73005,73005,Land (fixed),48.30879,-67.2528,126.65,Canada,IV
CBRG RACS-GLCOR,0-124-10010-M113000,M113000,Land (fixed),43.956461,-78.16438,79.33,Canada,IV
CDOR RACS,0-124-10010-M149002,M149002,Land (fixed),64.229248,-76.529449,58.55,Canada,IV
CENTRAL DIXON ENTRANCE,0-124-600-4600145,4600145,Sea (fixed),54.366,-132.44389,0,Canada,IV
CFB - BAGOTVILLE,0-20000-0-71727,71727,Land (fixed),48.33333333,-71,159.1,Canada,IV
CFB - COLD LAKE,0-20000-0-71120,71120,Land (fixed),54.41666667,-110.2833333,541,Canada,IV
CFB - COMOX,0-20000-0-71893,71893,Land (fixed),49.71666667,-124.9,25.6,Canada,IV
CFB GREENWOOD,0-20000-0-71397,71397,Land (fixed),44.98333333,-64.91666667,28,Canada,IV
CFB SHEARWATER,0-20000-0-71601,71601,Land (fixed),44.63333333,-63.5,44,Canada,IV
CHAMOUCHOUANE,0-20000-0-71523,71523,Land (fixed),49.26666667,-73.35,303.79,Canada,IV
CHAMPION AGDM,0-20000-0-71217,71217,Land (fixed),50.28194444,-113.3502778,1006,Canada,IV
CHAPAIS,0-20000-0-71824,71824,Land (fixed),49.81666667,-74.96666667,376.46,Canada,IV
CHAPLEAU A,0-20000-0-71642,71642,Land (fixed),47.82,-83.34666667,448.06,Canada,IV
CHAPLEAU AIRPORT,0-124-0-73135,73135,Land (fixed),47.81926,-83.3564,446.29,Canada,IV
CHARLEVOIX (MRC),0-20000-0-71319,71319,Land (fixed),47.28333333,-70.63333333,721.62,Canada,IV
CHARLO AUTO,0-20000-0-71315,71315,Land (fixed),47.99,-66.3342,40,Canada,IV
CHARLOTTETOWN A,0-20000-0-71706,71706,Land (fixed),46.28861111,-63.12861111,48.8,Canada,IV
CHETICAMP HIGHLANDS NATIONAL PARK,0-124-0-73023,73023,Land (fixed),46.65112,-60.9547,15,Canada,IV
CHETICAMP,0-20000-0-71959,71959,Land (fixed),46.645,-60.9472,20,Canada,IV
CHEVERY,0-20000-0-71814,71814,Land (fixed),50.45,-59.63333333,5.22,Canada,IV
CHIBOUGAMAU-CHAPAIS,0-124-0-73011,73011,Land (fixed),49.77731,-74.5304,387.95,Canada,IV
CHIBOUGAMAU-CHAPAIS A,0-20000-0-71822,71822,Land (fixed),49.76666667,-74.53333333,387.1,Canada,IV
CHUR CACS-GSD,0-124-10010-924001,924001,Land (fixed),58.759068,-94.088713,28.89,Canada,IV
CHURCHILL A UA,0-20001-0-71913,71913,Land (fixed),58.73333333,-94.06666667,28.5,Canada,IV
CHURCHILL CLIMATE,0-20000-0-71696,71696,Land (fixed),58.73333333,-94.06666667,28.99,Canada,IV
CHURCHILL FALLS A,0-20000-0-71002,71002,Land (fixed),53.56194444,-64.10638889,439.5,Canada,IV
CHURCHILL,0-20000-0-71618,71618,Land (fixed),58.73916667,-94.06638889,29.3,Canada,IV
CHUTE-DES-PASSES,0-20000-0-71522,71522,Land (fixed),49.83333333,-71.16666667,398,Canada,IV
CHWK WCDA-PGC,0-124-10010-987020,987020,Land (fixed),49.156604,-122.00841,192.49,Canada,IV
CKR759,0-124-42002-CKR759,CKR759,Sea (fixed),46.5,-48.4,71.5,Canada,IV
CLARESHOLM,0-20000-0-71234,71234,Land (fixed),50.0036,-113.6406,1009,Canada,IV
CLEARDALE AGDM,0-20000-0-71221,71221,Land (fixed),56.31444444,-119.745,630,Canada,IV
CLEARWATER AUTO,0-20000-0-71645,71645,Land (fixed),51.65,-120.0666667,454.61,Canada,IV
CLINTON (AUT),0-20000-0-71474,71474,Land (fixed),51.144555,-121.504555,1056.59,Canada,IV
CLRS WCDA-PGC,0-124-10010-M077001,M077001,Land (fixed),48.8203,-124.130867,192.19,Canada,IV
CLWD,0-124-10010-M173001,M173001,Land (fixed),44.508404,-80.220108,181.39,Canada,IV
CLYDE RIVER A,0-20000-0-71090,71090,Land (fixed),70.48583333,-68.51694444,26.5,Canada,IV
CLYDE RIVER CLIMATE,0-20000-0-71358,71358,Land (fixed),70.48383,-68.514889,32.61,Canada,IV
COBOURG (AUT),0-20000-0-71431,71431,Land (fixed),43.95,-78.15,77.7,Canada,IV
COLLEGEVILLE AUTO,0-124-0-71698,71698,Land (fixed),45.49019,-62.0162,77,Canada,IV
COLLINGWOOD,0-20000-0-71270,71270,Land (fixed),44.5,-80.21666667,178.3,Canada,IV
COLLINS BAY,0-20000-0-71075,71075,Land (fixed),58.228968,-103.677934,412.62,Canada,IV
COLVILLE LAKE,0-20000-0-71055,71055,Land (fixed),67.021574,-126.123204,271.79,Canada,IV
CONSORT AGDM,0-20000-0-71223,71223,Land (fixed),51.93694444,-110.7130556,772,Canada,IV
COP UPPER,0-20000-0-71235,71235,Land (fixed),51.06666667,-114.2166667,1235,Canada,IV
CORAL HARBOUR A,0-20000-0-71915,71915,Land (fixed),64.19333333,-83.35944444,62.2,Canada,IV
CORAL HARBOUR RCS,0-124-0-71134,71134,Land (fixed),64.18788,-83.3468,58.5,Canada,IV
CORMACK RCS,0-124-0-71367,71367,Land (fixed),49.322,-57.3934,165.8,Canada,IV
CORNER BROOK,0-20000-0-71973,71973,Land (fixed),48.93333333,-57.91666667,151.8,Canada,IV
CORONACH SPC,0-20000-0-71516,71516,Land (fixed),49.05,-105.4833333,760.01,Canada,IV
CORONATION CLIMATE,0-20000-0-71318,71318,Land (fixed),52.06666667,-111.4333333,789.69,Canada,IV
COVE ISLAND (AUT),0-20000-0-71439,71439,Land (fixed),45.3333,-81.7333,180.7,Canada,IV
CRAIGMYLE AGCM,0-20000-0-71013,71013,Land (fixed),51.775,-112.2522222,845,Canada,IV
CRANBROOK A,0-20000-0-71880,71880,Land (fixed),49.61222222,-115.7819444,940,Canada,IV
CRANBROOK AIRPORT AUTO,0-20000-0-71660,71660,Land (fixed),49.61666667,-115.7833333,925.42,Canada,IV
CRESTOMERE AGCM,0-20000-0-71380,71380,Land (fixed),52.73277778,-113.9027778,855,Canada,IV
CRESTON CAMPBELL SCIENTIFIC,0-20000-0-71770,71770,Land (fixed),49.06666667,-116.5,640.87,Canada,IV
CROKER RIVER,0-20000-0-71059,71059,Land (fixed),69.27555556,-119.2188889,69.4,Canada,IV
CROSS LAKE JENPEG 2,0-124-0-71106,71106,Land (fixed),54.53972,-98.0303,218.8,Canada,IV
CROWSNEST,0-20000-0-71236,71236,Land (fixed),49.61666667,-114.4666667,1303.66,Canada,IV
CUMSHEWA ISLAND,0-20000-0-71771,71771,Land (fixed),53.0303,-131.6014,16.8,Canada,IV
CYPRESS BOWL FREESTYLE,0-20000-0-71004,71004,Land (fixed),49.39222222,-123.2075,969.1,Canada,IV
CYPRESS HILLS PARK,0-20000-0-71139,71139,Land (fixed),49.6406,-109.5144,1270.6,Canada,IV
CYPRESS RIVER RCS,0-20000-0-71239,71239,Land (fixed),49.5622,-99.0739,374,Canada,IV
Cambridge Bay,0-20008-0-CBY,CBY,Land (fixed),69.1284,-105.0577,25,Canada,IV
Cambridge Bay Magnetic Observatory,0-124-10001-CBB,CBB,Land (fixed),69.123,-105.031,20,Canada,IV
Candle Lake,0-20008-0-CDL,CDL,Land (fixed),53.987108,-105.117939,591,Canada,IV
Cape St. James,0-20008-0-CSJ,CSJ,Land (fixed),51.93000031,-131.0200043,89,Canada,IV
Cedar-Kiteen,0-124-15003-4B18P,4B18P,Land (fixed),55.15233,-128.71,885,Canada,IV
Celgar Pulp,0-124-15003-98,98,Land (fixed),49.333333,-117.718889,449,Canada,IV
Celista,0-124-15003-1F06P,1F06P,Land (fixed),51.40611,-118.986,1525,Canada,IV
Chalk River,0-20008-0-CHA,CHA,Land (fixed),46.06277847,-77.40471649,184,Canada,IV
Chapais,0-20008-0-CPS,CPS,Land (fixed),49.821583,-74.974551,383,Canada,IV
Chase AGRI,0-124-15005-AGCH005,AGCH005,Land (fixed),50.80389,-119.708,355,Canada,IV
Chibougamau,0-20008-0-CHM,CHM,Land (fixed),49.69251,-74.342296,383,Canada,IV
Chilliwack River,0-124-15003-1D17P,1D17P,Land (fixed),49.03167,-121.713,1600,Canada,IV
Chris Creek,0-124-15007-ChrisCreek,ChrisCreek,Land (fixed),48.58028,-123.841,560,Canada,IV
Churchill,0-20008-0-CHL,CHL,Land (fixed),58.737902,-93.820581,16,Canada,IV
Clinton/Bleiber Ranch,0-124-42001-71717,71717,Land (fixed),51.25,-121.683,1126.2,Canada,IV
Clyde River Riometer,0-124-10001-CLY,CLY,Land (fixed),70.5,-68.5,27,Canada,IV
Cold Lake,0-20008-0-COL,COL,Land (fixed),54.77999878,-110.0500031,702,Canada,IV
Coldwater AGRI,0-124-15005-AGCW006,AGCW006,Land (fixed),50.01167,-120.891,718,Canada,IV
Colwood City Hall,0-124-15003-284,284,Land (fixed),48.42389,-123.49278,75,Canada,IV
Cook Creek,0-124-15003-1E14P,1E14P,Land (fixed),52.16782,-119.304,1280,Canada,IV
Cormak,0-20008-0-COR,COR,Land (fixed),49.31669998,-57.38330078,168,Canada,IV
Courtenay Elementary School,0-124-15003-414,414,Land (fixed),49.682603,-124.996222,27,Canada,IV
Cranbrook Muriel Baxter,0-124-15003-550,550,Land (fixed),49.507103,-115.753682,941,Canada,IV
Crofton Elementary,0-124-15003-564,564,Land (fixed),48.86,-123.643889,38,Canada,IV
Crofton Substation,0-124-15003-39,39,Land (fixed),48.874529,-123.653929,22,Canada,IV
DANIELS HARBOUR,0-20000-0-71185,71185,Land (fixed),50.236,-57.581,19,Canada,IV
DANIELS HARBOUR,0-124-0-73024,73024,Land (fixed),50.23639,-57.5811,25,Canada,IV
DAPP AGDM,0-20000-0-71340,71340,Land (fixed),54.31666667,-113.95,614.2,Canada,IV
DAUPHIN CS,0-20000-0-71550,71550,Land (fixed),51.1,-100.05,303.17,Canada,IV
DAUPHIN,0-20000-0-71036,71036,Land (fixed),51.10083333,-100.0525,304.5,Canada,IV
DAWSON CREEK A,0-20000-0-71471,71471,Land (fixed),55.74222222,-120.1830556,654.7,Canada,IV
DAWSON,0-20000-0-71966,71966,Land (fixed),64.03333333,-139.1166667,376,Canada,IV
DEADMEN VALLEY,0-20000-0-71021,71021,Land (fixed),61.25,-124.4666667,283,Canada,IV
DEASE LAKE (AUT),0-20000-0-71222,71222,Land (fixed),58.41666667,-130.0166667,801.08,Canada,IV
DEASE LAKE A,0-20000-0-71686,71686,Land (fixed),58.42222222,-130.0313889,802.8,Canada,IV
DEBERT,0-20000-0-71317,71317,Land (fixed),45.421494,-63.465897,39,Canada,IV
DEER LAKE A,0-20000-0-71809,71809,Land (fixed),49.21666667,-57.4,21.9,Canada,IV
DEERWOOD RCS,0-20000-0-71840,71840,Land (fixed),49.38333333,-98.31666667,339.76,Canada,IV
DEL BONITA AGDM,0-20000-0-71224,71224,Land (fixed),49.05,-112.8166667,1310,Canada,IV
DELBURNE AGCM,0-20000-0-71014,71014,Land (fixed),52.18277778,-113.1755556,889,Canada,IV
DELHI CS,0-20000-0-71573,71573,Land (fixed),42.866667,-80.55,231.7,Canada,IV
DELINE CS,0-20000-0-71503,71503,Land (fixed),65.2,-123.4166667,207.77,Canada,IV
DELTA BURNS BOG,0-124-0-71042,71042,Land (fixed),49.12599,-123.002,3,Canada,IV
DELTA MARSH CS,0-20000-0-71563,71563,Land (fixed),50.18277778,-98.38222222,248.4,Canada,IV
DESCHAMBAULT,0-20000-0-71389,71389,Land (fixed),46.690641,-71.971732,61,Canada,IV
DEWAR LAKES,0-20000-0-71092,71092,Land (fixed),68.65,-71.16666667,526.7,Canada,IV
DEWBERRY AGCM,0-20000-0-71359,71359,Land (fixed),53.65916667,-110.5875,616,Canada,IV
DISCOVERY ISLAND,0-20000-0-71031,71031,Land (fixed),48.41666667,-123.2166667,18.93,Canada,IV
DOAKTOWN AUTO RCS,0-20000-0-71038,71038,Land (fixed),46.58333333,-66,40,Canada,IV
DRAO WCDA-PGC,0-124-10010-887006,887006,Land (fixed),49.322614,-119.624965,558.55,Canada,IV
DRNG RACS,0-124-10010-M149001,M149001,Land (fixed),64.863906,-111.581249,425.04,Canada,IV
DRUMHELLER EAST,0-20000-0-71237,71237,Land (fixed),51.4451,-112.6758,678.2,Canada,IV
DRYDEN REGIONAL,0-20000-0-71527,71527,Land (fixed),49.8275,-92.74416667,412.7,Canada,IV
DUBO CACS-GSD,0-124-10010-924000,924000,Land (fixed),50.258801,-95.866169,274.99,Canada,IV
DUPRE AGCM,0-20000-0-71414,71414,Land (fixed),54.36694444,-110.8677778,556,Canada,IV
Deadman River,0-124-15003-1C32P,1C32P,Land (fixed),51.09851,-120.61,1430,Canada,IV
Deep Creek AGRI,0-124-15005-AGDC007,AGDC007,Land (fixed),50.6275,-119.194,517,Canada,IV
Diamon S (Lilloett) AGRI,0-124-15005-AGDS008,AGDS008,Land (fixed),50.85167,-121.867,450,Canada,IV
Dome Mountain,0-124-15003-1A19P,1A19P,Land (fixed),53.62208,-121.024,1820,Canada,IV
Dorset,0-20008-0-DOR,DOR,Land (fixed),45.22000122,-78.93000031,320,Canada,IV
Douglas Lake AGRI,0-124-15005-AGDL009,AGDL009,Land (fixed),50.20472,-120.025,952,Canada,IV
Downsview,0-20008-0-DWS,DWS,Land (fixed),43.780491,-79.46801,184,Canada,IV
Duncan College Street,0-124-15003-542,542,Land (fixed),48.786114,-123.717307,32,Canada,IV
EAGLESHAM AGCM,0-20000-0-71461,71461,Land (fixed),55.80805556,-117.8866667,563,Canada,IV
EAR FALLS (AUT),0-20000-0-71295,71295,Land (fixed),50.61666667,-93.21666667,362.6,Canada,IV
EARLTON A,0-20000-0-71684,71684,Land (fixed),47.695,-79.84888889,243.8,Canada,IV
EARLTON CLIMATE,0-20000-0-71213,71213,Land (fixed),47.6975,-79.852,243.4,Canada,IV
EAST CHEDABUCTO BAY,0-124-600-4400488,4400488,Sea (fixed),45.445,-60.9538,0,Canada,IV
EAST DELLWOOD,0-124-600-4600207,4600207,Sea (fixed),50.874,-129.916,0,Canada,IV
EAST POINT (AUT),0-20000-0-71412,71412,Land (fixed),46.45,-61.98333333,8,Canada,IV
EAST SCOTIA SLOPE,0-124-600-4400137,4400137,Sea (fixed),42.26126,-61.99852,0,Canada,IV
EASTEND CYPRESS (AUT),0-20000-0-71131,71131,Land (fixed),49.43763,-108.98887,1078.14,Canada,IV
EDGERTON AGCM,0-20000-0-71360,71360,Land (fixed),52.77777778,-110.4327778,649,Canada,IV
EDMONTON CITY CENTRE AWOS,0-20000-0-71879,71879,Land (fixed),53.57194444,-113.5194444,671.4,Canada,IV
EDMONTON INT'L A,0-20000-0-71123,71123,Land (fixed),53.31666667,-113.5833333,723.3,Canada,IV
EDMONTON INTERNATIONAL CS,0-20000-0-71155,71155,Land (fixed),53.3,-113.6,704.95,Canada,IV
EDMONTON MUNICIPAL CR10,0-20000-0-71157,71157,Land (fixed),53.56666667,-113.5166667,671,Canada,IV
EDMONTON NAMAO AWOS A,0-20000-0-71121,71121,Land (fixed),53.66666667,-113.4666667,687.93,Canada,IV
EDMONTON STONY PLAIN CS,0-20000-0-71127,71127,Land (fixed),53.53333333,-114.1,764.11,Canada,IV
EDMUNDSTON,0-20000-0-71590,71590,Land (fixed),47.4,-68.31666667,154.79,Canada,IV
EDSON AWOS A,0-20000-0-71881,71881,Land (fixed),53.57888889,-116.465,926.9,Canada,IV
EDSON CLIMATE,0-20000-0-71156,71156,Land (fixed),53.56666667,-116.45,922.99,Canada,IV
EDSON,0-20000-0-71167,71167,Land (fixed),53.57888889,-116.465,926.9,Canada,IV
EGBERT CS,0-20000-0-71296,71296,Land (fixed),44.21666667,-79.76666667,251,Canada,IV
EGBERT UA,0-20000-0-71561,71561,Land (fixed),44.23333333,-79.78333333,252,Canada,IV
EGG ISLAND,0-20000-0-71404,71404,Land (fixed),58.96666667,-110.4333333,214.9,Canada,IV
ELBOW CS,0-20000-0-71450,71450,Land (fixed),51.11666667,-106.5666667,592.28,Canada,IV
ELIZ WCDA-PGC,0-124-10010-M007001,M007001,Land (fixed),49.87305,-127.122646,182.18,Canada,IV
ELK ISLAND NAT PARK,0-20000-0-71238,71238,Land (fixed),53.66666667,-112.8666667,713.73,Canada,IV
ELORA RCS,0-20000-0-71352,71352,Land (fixed),43.63333333,-80.4,372.27,Canada,IV
EMERSON AUTO,0-20000-0-71560,71560,Land (fixed),49,-97.23333333,242,Canada,IV
ENCHANT AGDM,0-20000-0-71518,71518,Land (fixed),50.18333333,-112.4333333,801,Canada,IV
ENGLEE (AUT),0-20000-0-71417,71417,Land (fixed),50.71666667,-56.1,30.3,Canada,IV
ENNA,0-124-10010-M139001,M139001,Land (fixed),60.76712,-101.696231,326,Canada,IV
ENNADAI LAKE (AUT),0-20000-0-71923,71923,Land (fixed),61.11666667,-100.8833333,349.65,Canada,IV
ENTRANCE ISLAND CS,0-20000-0-71772,71772,Land (fixed),49.2,-123.8,7.6,Canada,IV
ENTRANCE TO ENGLISH BAY,0-124-600-4600304,4600304,Sea (fixed),49.30167,-123.357,0,Canada,IV
ERIEAU (AUT),0-20000-0-71465,71465,Land (fixed),42.25,-81.9,178,Canada,IV
ESCU RACS-ESS,0-124-10010-M041000,M041000,Land (fixed),47.073394,-64.79871,4.19,Canada,IV
ESKASONI FIRST NATION,0-124-0-71175,71175,Land (fixed),45.9206,-60.6469,28,Canada,IV
ESQUIMALT HARBOUR,0-20000-0-71798,71798,Land (fixed),48.431972,-123.439333,3,Canada,IV
ESTEVAN A,0-20000-0-71862,71862,Land (fixed),49.21666667,-102.9666667,580.3,Canada,IV
ESTEVAN POINT CS,0-20000-0-71894,71894,Land (fixed),49.3832,-126.5447,5.8,Canada,IV
ESTEVAN RCS,0-20000-0-71559,71559,Land (fixed),49.2,-102.9666667,577.81,Canada,IV
ESTHER 1,0-20000-0-71240,71240,Land (fixed),51.66666667,-110.2,701,Canada,IV
ETZICOM AGCM,0-20000-0-71409,71409,Land (fixed),49.55277778,-111.0541667,845,Canada,IV
EUR2 CACS-GSD,0-124-10010-M059000,M059000,Land (fixed),79.988935,-85.937549,22.36,Canada,IV
EUREKA A,0-20000-0-71917,71917,Land (fixed),79.98333333,-85.93333333,10.4,Canada,IV
EUREKA UA,0-20001-0-71917,71917,Land (fixed),79.98333333,-85.93333333,10.4,Canada,IV
EVANSBURG AGCM,0-20000-0-71481,71481,Land (fixed),53.613889,-115.06225,819,Canada,IV
East Trout Lake,0-20008-0-ETL,ETL,Land (fixed),54.353743,-104.986864,500,Canada,IV
Edmonton,0-20008-0-EDT,EDT,Land (fixed),53.54999924,-114.0999985,766,Canada,IV
Edmonton/Villeneuve,0-124-42001-71664,71664,Land (fixed),53.66833,-113.856,687.6,Canada,IV
Egbert,0-20008-0-EGB,EGB,Land (fixed),44.231006,-79.783839,255,Canada,IV
Elkford Rocky Mountain Elementary School,0-124-15003-585,585,Land (fixed),50.007794,-114.93342,1333,Canada,IV
Enderby,0-124-15003-1F04P,1F04P,Land (fixed),50.65247,-118.944,1950,Canada,IV
Estevan Point,0-20008-0-ESP,ESP,Land (fixed),49.382935,-126.544097,7,Canada,IV
Esther,0-20008-0-EST,EST,Land (fixed),51.67055,-110.206325,707,Canada,IV
Eureka,0-20008-0-EUK,EUK,Land (fixed),80.05000305,-86.41665649,610,Canada,IV
Eureka Climate,0-20000-0-71613,71613,Land (fixed),79.9892,-85.9339,10,Canada,IV
Eureka Magnetic Observatory,0-124-10001-EAU,EAU,Land (fixed),80,-85.9,10,Canada,IV
Experimental Lakes Area,0-20008-0-ELA,ELA,Land (fixed),49.66666794,-93.71666718,369,Canada,IV
FAIRVIEW AGDM,0-20000-0-71347,71347,Land (fixed),56.08138889,-118.4394444,654.55,Canada,IV
FANNY ISLAND,0-124-0-71568,71568,Land (fixed),50.45352,-125.993,9.6,Canada,IV
FARO (AUT),0-20000-0-71949,71949,Land (fixed),62.2075,-133.3758,719,Canada,IV
FERINTOSH AGCM,0-20000-0-71673,71673,Land (fixed),52.74361111,-112.8577778,795,Canada,IV
FEROLLE POINT (AUT),0-20000-0-71406,71406,Land (fixed),51.0167,-57.1,5.8,Canada,IV
FINCASTLE AGDM,0-20000-0-71535,71535,Land (fixed),49.8,-112.0333333,833,Canada,IV
FISHER BRANCH (AUT),0-20000-0-71442,71442,Land (fixed),51.0834,-97.5545,253,Canada,IV
FLIN CACS-GSD,0-124-10010-965000,965000,Land (fixed),54.725576,-101.978019,342,Canada,IV
FLIN FLON,0-20000-0-71954,71954,Land (fixed),54.66666667,-101.6666667,303.9,Canada,IV
FOREMOST AGDM,0-20000-0-71225,71225,Land (fixed),49.48333333,-111.4861111,881,Canada,IV
FORESTBURG AGCM,0-20000-0-71674,71674,Land (fixed),52.54833333,-112.1233333,721,Canada,IV
FORET MONTMORENCY RCS,0-20000-0-71212,71212,Land (fixed),47.31666667,-71.13333333,672.03,Canada,IV
FORT ASSINIBOINE AGCM,0-20000-0-71483,71483,Land (fixed),54.41027778,-114.7691667,676,Canada,IV
FORT CHIPEWYAN RCS,0-20000-0-71056,71056,Land (fixed),58.75,-111.1,238,Canada,IV
FORT CHIPEWYAN,0-20000-0-71305,71305,Land (fixed),58.76722222,-111.1172222,238,Canada,IV
FORT FRANCES RCS,0-20000-0-71962,71962,Land (fixed),48.65111111,-93.43888889,342,Canada,IV
FORT GOOD HOPE CS,0-20000-0-71491,71491,Land (fixed),66.23333333,-128.6333333,81.7,Canada,IV
FORT LIARD,0-20000-0-71497,71497,Land (fixed),60.23333333,-123.4666667,213.4,Canada,IV
FORT MACLEOD AGCM,0-20000-0-71789,71789,Land (fixed),49.78583333,-113.3794444,978,Canada,IV
FORT MCMURRAY A,0-20000-0-71689,71689,Land (fixed),56.65333333,-111.2233333,369.1,Canada,IV
FORT MCMURRAY CS,0-20000-0-71585,71585,Land (fixed),56.649963,-111.220947,368.8,Canada,IV
FORT NELSON ,0-124-0-71594,71594,Land (fixed),58.84139,-122.574,380.4,Canada,IV
FORT NELSON A,0-20000-0-71945,71945,Land (fixed),58.83638889,-122.5972222,381.9,Canada,IV
FORT NELSON UA,0-20001-0-71945,71945,Land (fixed),58.83333333,-122.6,378.3,Canada,IV
FORT PROVIDENCE,0-20000-0-71087,71087,Land (fixed),61.3169,-117.6019,161.5,Canada,IV
FORT RELIANCE (AUT),0-20000-0-71160,71160,Land (fixed),62.7114,-109.1683,167.6,Canada,IV
FORT ROSS,0-20000-0-71629,71629,Land (fixed),72.018061,-94.200462,7.28,Canada,IV
FORT SEVERN A,0-20000-0-71099,71099,Land (fixed),56.01888889,-87.67611111,15.8,Canada,IV
FORT SIMPSON A,0-20000-0-71946,71946,Land (fixed),61.76027778,-121.2366667,169.2,Canada,IV
FORT SIMPSON CLIMATE,0-20000-0-71365,71365,Land (fixed),61.758016,-121.232441,168,Canada,IV
FORT SMITH A,0-20000-0-71934,71934,Land (fixed),60.02027778,-111.9619444,205.13,Canada,IV
FORT SMITH CLIMATE,0-20000-0-71362,71362,Land (fixed),60.026169,-111.928908,203,Canada,IV
FORT SMITH UA,0-20001-0-71934,71934,Land (fixed),60.02611111,-111.9294444,204.1,Canada,IV
FORT ST JAMES AUTO,0-20000-0-71933,71933,Land (fixed),54.45,-124.2833333,677,Canada,IV
FORT ST JOHN A,0-20000-0-71943,71943,Land (fixed),56.23805556,-120.7402778,694.9,Canada,IV
FORT ST JOHN AIRPORT,0-124-0-73090,73090,Land (fixed),56.24748,-120.75,690.44,Canada,IV
FORT VERMILION,0-20000-0-71024,71024,Land (fixed),58.36666667,-116.0333333,289,Canada,IV
FOX FIVE,0-20000-0-71096,71096,Land (fixed),67.53555556,-63.78888889,584.4,Canada,IV
FRDN CACS-GSD,0-124-10010-M031000,M031000,Land (fixed),45.933497,-66.659879,117.93,Canada,IV
FREDERICTON CDA CS,0-20000-0-71668,71668,Land (fixed),45.9203,-66.6089,35.08,Canada,IV
FREDERICTON,0-20000-0-71700,71700,Land (fixed),45.86888889,-66.53722222,20.7,Canada,IV
FRELIGHSBURG,0-20000-0-71373,71373,Land (fixed),45.03333333,-72.85,224.28,Canada,IV
FT. PROVIDENCE,0-20000-0-71086,71086,Land (fixed),61.66666667,-117.25,159,Canada,IV
FUNDY PARK (ALMA) CS,0-20000-0-71191,71191,Land (fixed),45.597177,-64.953136,41,Canada,IV
Farmington Community Hall,0-124-15003-464,464,Land (fixed),55.913233,-120.53157,696,Canada,IV
Fort Churchill Magnetic Observatory,0-124-10001-FCC,FCC,Land (fixed),58.759,-94.088,15,Canada,IV
Fort McKay (South),0-20008-0-FMS,FMS,Land (fixed),57.14924,-111.642633,268,Canada,IV
Fort Nelson,0-20008-0-FNE,FNE,Land (fixed),58.841231,-122.573671,377,Canada,IV
Fort St John Key Learning Centre,0-124-15003-469,469,Land (fixed),56.244722,-120.856111,679,Canada,IV
Fraser Lake Endako Mines,0-124-15003-452,452,Land (fixed),54.034444,-125.095833,1005,Canada,IV
Fraserdale,0-20008-0-FSD,FSD,Land (fixed),49.84000015,-81.51667023,210,Canada,IV
Frelighsburg,0-20008-0-FRE,FRE,Land (fixed),45.05027771,-75.86166382,203,Canada,IV
GAGETOWN A,0-20001-0-71701,71701,Land (fixed),45.83333333,-66.43333333,50.6,Canada,IV
GAGETOWN AWOS A,0-20000-0-71701,71701,Land (fixed),45.83888889,-66.44972222,50.6,Canada,IV
GANDER AIRPORT CS,0-20000-0-71742,71742,Land (fixed),48.93333333,-54.56666667,151,Canada,IV
GANDER INT'L A,0-20000-0-71803,71803,Land (fixed),48.94638889,-54.57694444,151.2,Canada,IV
GARDEN RIVER,0-20000-0-71253,71253,Land (fixed),58.7,-113.85,240.8,Canada,IV
GASPE A,0-20000-0-71188,71188,Land (fixed),48.77694444,-64.47805556,34.1,Canada,IV
GASPE AIRPORT,0-124-0-73116,73116,Land (fixed),48.77674,-64.4794,34.93,Canada,IV
GATESHEAD ISLAND,0-20000-0-71141,71141,Land (fixed),70.61666667,-100.2666667,17.42,Canada,IV
GEORGE ISLAND (AUT),0-20000-0-71445,71445,Land (fixed),52.81666667,-97.6,222.64,Canada,IV
GERALDTON A,0-20000-0-71834,71834,Land (fixed),49.78277778,-86.93055556,348.4,Canada,IV
GERALDTON AIRPORT,0-124-0-73071,73071,Land (fixed),49.78091,-86.9324,348.47,Canada,IV
GILLAM,0-124-0-73087,73087,Land (fixed),56.35936,-94.7041,145.3,Canada,IV
GILLAM A,0-20000-0-71912,71912,Land (fixed),56.3589,-94.7042,145.3,Canada,IV
GILT EDGE NORTH AGCM,0-20000-0-71791,71791,Land (fixed),53.07083333,-110.6208333,647,Canada,IV
GIMLI CLIMATE,0-20000-0-71748,71748,Land (fixed),50.63333333,-97.05,230.1,Canada,IV
GIMLI HARBOUR CS,0-20000-0-71577,71577,Land (fixed),50.61666667,-96.96666667,218.73,Canada,IV
GJOA HAVEN A,0-20000-0-71597,71597,Land (fixed),68.63555556,-95.85027778,46.9,Canada,IV
GJOA HAVEN CLIMATE,0-20000-0-71363,71363,Land (fixed),68.6356,-95.8503,42.3,Canada,IV
GLDR WCDA-PGC,0-124-10010-M097001,M097001,Land (fixed),49.681482,-126.127313,5.77,Canada,IV
GLEICHEN AGCM,0-20000-0-71498,71498,Land (fixed),50.93444444,-112.9405556,907,Canada,IV
GLENEVIS AGCM,0-20000-0-71500,71500,Land (fixed),53.8325,-114.5388889,670,Canada,IV
GLENWOOD,0-20000-0-71885,71885,Land (fixed),49.33444444,-113.5244444,1074,Canada,IV
GOD2 RACS-GLCOR,0-124-10010-M133000,M133000,Land (fixed),43.745343,-81.727847,180.89,Canada,IV
GODERICH,0-20000-0-71261,71261,Land (fixed),43.75,-81.7,213.58,Canada,IV
GOLDEN AIRPORT,0-124-0-71905,71905,Land (fixed),51.30028,-116.984,784.78,Canada,IV
GOOSE A,0-20000-0-71816,71816,Land (fixed),53.31666667,-60.41666667,48.8,Canada,IV
GOOSE UA,0-20001-0-71816,71816,Land (fixed),53.3,-60.36666667,35.7,Canada,IV
GORE BAY CLIMATE,0-20000-0-71956,71956,Land (fixed),45.88333333,-82.56666667,194.04,Canada,IV
GRAND ETANG,0-124-0-73030,73030,Land (fixed),46.54712,-61.0492,12.8,Canada,IV
GRAND MANAN SAR CS,0-20000-0-71030,71030,Land (fixed),44.7,-66.8,73,Canada,IV
GRAND RAPIDS (AUT),0-20000-0-71858,71858,Land (fixed),53.18333333,-99.26666667,222.5,Canada,IV
GRANDE PRAIRIE A,0-20000-0-71940,71940,Land (fixed),55.17972222,-118.885,669,Canada,IV
GRANDES BERGERONNES,0-124-0-71942,71942,Land (fixed),48.27453,-69.5437,57.96,Canada,IV
GRASSY LAKE,0-20000-0-71788,71788,Land (fixed),49.87361111,-111.7327778,783,Canada,IV
GRATES COVE,0-124-0-71336,71336,Land (fixed),48.16987,-52.9388,46.2,Canada,IV
GREAT DUCK ISLAND (AUT),0-20000-0-71462,71462,Land (fixed),45.6333,-82.95,182.8,Canada,IV
GREAT FALLS CLIMATE,0-20000-0-71570,71570,Land (fixed),50.45,-96,246.46,Canada,IV
GREAT SLAVE LAKE,0-124-600-4500141,4500141,Sea (fixed),61.181,-115.314,156,Canada,IV
GRENADIER ISLAND,0-20000-0-71281,71281,Land (fixed),44.45,-75.85,82,Canada,IV
GRETNA (AUT),0-20000-0-71441,71441,Land (fixed),49.01666667,-97.55,250.2,Canada,IV
GREY ISLET (AUT),0-20000-0-71476,71476,Land (fixed),54.56666667,-130.6833333,9.5,Canada,IV
GRISE FIORD CLIMATE,0-20000-0-71971,71971,Land (fixed),76.41666667,-82.9,34.35,Canada,IV
GRNB WCDA-PGC,0-124-10010-M147002,M147002,Land (fixed),53.846794,-129.958014,468.06,Canada,IV
GT. SLAVE LK N. ARM,0-124-600-4500150,4500150,Sea (fixed),61.98,-114.129,156,Canada,IV
GUELPH TURFGRASS INSTITUTE,0-124-0-73073,73073,Land (fixed),43.54187,-80.2221,334.55,Canada,IV
GUELPH TURFGRASS,0-20000-0-71833,71833,Land (fixed),43.53333333,-80.2,325,Canada,IV
Gimli,0-20008-0-GIM,GIM,Land (fixed),50.63000107,-97.05000305,228,Canada,IV
Glenlea Magnetic Observatory,0-124-10001-GLN,GLN,Land (fixed),49.645,-97.12,40,Canada,IV
Golden Lady Grey School,0-124-15003-19,19,Land (fixed),51.2956,-116.9717,773,Canada,IV
Goose,0-20008-0-GSE,GSE,Land (fixed),53.31111145,-60.36666107,30,Canada,IV
Goose Bay,0-20008-0-GOB,GOB,Land (fixed),53.29027939,-60.38750076,39,Canada,IV
Graham Creek at Nepean,0-124-99-02KF015,02KF015,Lake/River (fixed),45.34358,-75.80808,25,Canada,IV
Grand Forks AGRI,0-124-15005-AGGF011,AGGF011,Land (fixed),49.0056,-118.485,536,Canada,IV
Grand Forks Airport,0-124-15003-56,56,Land (fixed),49.014722,-118.426944,520,Canada,IV
Granduc,0-124-15003-4B12P,4B12P,Land (fixed),56.24674,-130.066,790,Canada,IV
Grano Creek,0-124-15003-2E07P,2E07P,Land (fixed),49.55067,-118.678,1860,Canada,IV
Gray Creek Lower,0-124-15003-2D05P,2D05P,Land (fixed),49.61142,-116.679,1650,Canada,IV
Gray Creek Upper,0-124-15003-2D10P,2D10P,Land (fixed),49.61656,-116.658,1930,Canada,IV
Great Whale River Magnetic Observatory,0-124-10001-GWC,GWC,Land (fixed),55.3,-77.75,25,Canada,IV
Greyback Resevoir,0-124-15003-2F08P,2F08P,Land (fixed),49.61583,-119.422,1550,Canada,IV
Grindrod AGRI,0-124-15005-AGGR012,AGGR012,Land (fixed),50.6009,-119.138,385,Canada,IV
HAINES JUNCTION,0-20000-0-71505,71505,Land (fixed),60.772669,-137.580447,593.45,Canada,IV
HALIBUT BANK,0-124-600-4600146,4600146,Sea (fixed),49.34,-123.727,0,Canada,IV
HALIFAX DOCKYARD,0-124-12001-71328,71328,Land (fixed),44.65528,-63.5758,3,Canada,IV
HALIFAX HARBOUR,0-124-600-4400258,4400258,Sea (fixed),44.502,-63.403,0,Canada,IV
HALIFAX INT'L A,0-20000-0-71395,71395,Land (fixed),44.88,-63.5,145.4,Canada,IV
HALIFAX KOOTENAY,0-20000-0-71326,71326,Land (fixed),44.58333333,-63.55,58,Canada,IV
HALIFAX WINDSOR PARK,0-124-12001-71327,71327,Land (fixed),44.65694,-63.6081,55,Canada,IV
HALKIRK AGCM,0-20000-0-71792,71792,Land (fixed),52.11638889,-112.1641667,843,Canada,IV
HALL BEACH A,0-20000-0-71293,71293,Land (fixed),68.77583333,-81.2425,9.1,Canada,IV
HALL BEACH UA,0-20001-0-71081,71081,Land (fixed),68.76666667,-81.21666667,5.9,Canada,IV
HAMILTON A,0-20000-0-71263,71263,Land (fixed),43.17166667,-79.93416667,237.7,Canada,IV
HAMILTON RBG CS,0-20000-0-71297,71297,Land (fixed),43.28333333,-79.9,104.06,Canada,IV
HANBURY RIVER,0-20000-0-71963,71963,Land (fixed),63.58333333,-105.15,314.4,Canada,IV
HAPPY VALLEY - GOOSE BAY,0-124-0-73120,73120,Land (fixed),53.30639,-60.3626,38,Canada,IV
HARRINGTON CDA CS,0-20000-0-71350,71350,Land (fixed),46.34378,-63.16974,52,Canada,IV
HARROW CDA AUTO,0-20000-0-71298,71298,Land (fixed),42.01666667,-82.88333333,191.53,Canada,IV
HART ISLAND (AUT),0-20000-0-71419,71419,Land (fixed),45.33333333,-60.98333333,8.2,Canada,IV
HAT ISLAND,0-20000-0-71084,71084,Land (fixed),68.31805556,-100.0869444,36.1,Canada,IV
HAVRE ST. PIERRE,0-20000-0-71584,71584,Land (fixed),50.28194444,-63.61138889,37.8,Canada,IV
HAVRE-SAINT-PIERRE A,0-20000-0-71313,71313,Land (fixed),50.28333333,-63.6,37.8,Canada,IV
HAWK HILLS AGCM,0-20000-0-71507,71507,Land (fixed),57.26472222,-117.2975,455,Canada,IV
HAY RIVER A,0-20000-0-71935,71935,Land (fixed),60.83972222,-115.7827778,164.9,Canada,IV
HAY RIVER CLIMATE,0-20000-0-71361,71361,Land (fixed),60.83333333,-115.7666667,164,Canada,IV
HEATH POINT,0-20000-0-71423,71423,Land (fixed),49.08333333,-61.7,3.96,Canada,IV
HEMARUKA AGCM,0-20000-0-71793,71793,Land (fixed),51.77972222,-111.2119444,780,Canada,IV
HENDRICKSON CREEK,0-20000-0-71979,71979,Land (fixed),53.78333333,-118.4333333,1448,Canada,IV
HERBERT ISLAND (AUT),0-20000-0-71485,71485,Land (fixed),50.93333333,-127.6166667,13.5,Canada,IV
HERSCHEL ISLAND,0-20000-0-71501,71501,Land (fixed),69.56666667,-138.9,1.2,Canada,IV
HESPERO AGCM,0-20000-0-71540,71540,Land (fixed),52.31,-114.4858333,965,Canada,IV
HIGH FALLS,0-20000-0-71391,71391,Land (fixed),45.83333333,-75.63333333,192.33,Canada,IV
HIGH LEVEL,0-20000-0-71066,71066,Land (fixed),58.62166667,-117.1647222,338.02,Canada,IV
HIGH LEVEL,0-124-0-73085,73085,Land (fixed),58.6314,-117.164,338.58,Canada,IV
HIGH PRAIRIE AGDM,0-20000-0-71226,71226,Land (fixed),55.39583333,-116.4794444,601.7,Canada,IV
HIGHVALE,0-20000-0-71241,71241,Land (fixed),53.45,-114.4666667,746.8,Canada,IV
HLFX CACS-GSD,0-124-10010-961000,961000,Land (fixed),44.683539,-63.61128,24.52,Canada,IV
HOLB WCDA-PGC,0-124-10010-927005,927005,Land (fixed),50.64035,-128.134979,575.36,Canada,IV
HOLDEN AGDM,0-20000-0-71227,71227,Land (fixed),53.185,-112.2461111,688,Canada,IV
HOLLAND ROCK,0-20000-0-71219,71219,Land (fixed),54.16666667,-130.35,5.5,Canada,IV
HOLM RACS-CHS,0-124-10010-M019000,M019000,Land (fixed),70.736298,-117.761202,16.79,Canada,IV
HOLMAN CS,0-20000-0-71029,71029,Land (fixed),70.761452,-117.799964,29.78,Canada,IV
HOPE (AUT),0-20000-0-71114,71114,Land (fixed),49.3698,-121.4935,39,Canada,IV
HOPE A,0-20000-0-71187,71187,Land (fixed),49.36833333,-121.4980556,39,Canada,IV
HOPEDALE (AUT),0-20000-0-71900,71900,Land (fixed),55.45,-60.21666667,11.9,Canada,IV
HOWE SOUND - PAM ROCKS,0-20000-0-71211,71211,Land (fixed),49.4879,-123.2995,7.14,Canada,IV
HRST RACS-GLCORS,0-124-10010-963012,963012,Land (fixed),49.667436,-83.511038,267.36,Canada,IV
HUDSON BAY (AUT),0-20000-0-71868,71868,Land (fixed),52.81666667,-102.3166667,351,Canada,IV
HUGHENDEN AGCM,0-20000-0-71794,71794,Land (fixed),52.57805556,-110.7836111,703,Canada,IV
HUSSAR AGDM,0-20000-0-71344,71344,Land (fixed),51.18333333,-112.5,971.21,Canada,IV
HWKB WCDA-PGC,0-124-10010-M147004,M147004,Land (fixed),53.598826,-129.154897,790.06,Canada,IV
Halfway Ranch (Lytton-Lilloett) AGRI,0-124-15005-AGHR013,AGHR013,Land (fixed),50.48667,-121.717,300,Canada,IV
Halifax,0-20008-0-HFX,HFX,Land (fixed),44.73333359,-63.20000076,31,Canada,IV
Hall Beach Riometer,0-124-10001-HAL,HAL,Land (fixed),68.8,-81.2,8,Canada,IV
Hanlan's Point,0-20008-0-HNP,HNP,Land (fixed),43.61229,-79.388543,75,Canada,IV
Harcourt,0-20008-0-HCT,HCT,Land (fixed),46.48416519,-65.2583313,45,Canada,IV
Harcourt B,0-20008-0-HAB,HAB,Land (fixed),46.49499893,-65.26750183,37,Canada,IV
Harmac Pacific,0-124-15003-60,60,Land (fixed),49.133787,-123.850479,23,Canada,IV
Hat Creek AGRI,0-124-15005-AGHC014,AGHC014,Land (fixed),50.89444,-120.891,728,Canada,IV
Heather Mountain Upper,0-124-15003-3B24P,3B24P,Land (fixed),48.94392,-124.452,1190,Canada,IV
Hedrick Lake,0-124-15003-1A14P,1A14P,Land (fixed),54.10556,-121.004,1100,Canada,IV
Hope Othello Compressor Station,0-124-15003-64,64,Land (fixed),49.382778,-121.365278,228,Canada,IV
Houston Firehall,0-124-15003-3,3,Land (fixed),54.398289,-126.641604,602,Canada,IV
Hullar Rd East AGRI,0-124-15005-AGHE015,AGHE015,Land (fixed),50.54694,-119.229,531,Canada,IV
Hullar Rd West AGRI,0-124-15005-AGHW016,AGHW016,Land (fixed),50.53416,-119.28,561,Canada,IV
ILE AUX PERROQUETS,0-20000-0-71375,71375,Land (fixed),50.2208,-64.2072,9,Canada,IV
ILE BICQUETTE,0-20000-0-71385,71385,Land (fixed),48.4156,-68.8928,7,Canada,IV
ILE D'ORLEANS,0-20000-0-71424,71424,Land (fixed),46.98333333,-70.8,3.6,Canada,IV
ILE ROUGE,0-20000-0-71426,71426,Land (fixed),48.06666667,-69.55,5.55,Canada,IV
ILES DE LA MADELEINE A,0-20000-0-71709,71709,Land (fixed),47.41666667,-61.78333333,10.7,Canada,IV
ILES DE LA MADELEINE,0-20000-0-71710,71710,Land (fixed),47.41666667,-61.76666667,7.6,Canada,IV
INDIAN HEAD CDA,0-20000-0-71515,71515,Land (fixed),50.55,-103.65,579.99,Canada,IV
INGONISH BEACH CS,0-20000-0-71027,71027,Land (fixed),46.65,-60.4,10,Canada,IV
INNER WHALEBACKS,0-20000-0-71162,71162,Land (fixed),61.9207,-113.725713,165.2,Canada,IV
INUKJUAK A,0-20000-0-71907,71907,Land (fixed),58.4673,-78.0787,23.1,Canada,IV
INUKJUAK UA,0-20001-0-71907,71907,Land (fixed),58.46666667,-78.08333333,24.4,Canada,IV
INUKJUAK,0-20000-0-71306,71306,Land (fixed),58.47194444,-78.07694444,25.3,Canada,IV
INUVIK AWOS A,0-20000-0-71957,71957,Land (fixed),68.3,-133.4833333,67.67,Canada,IV
INUVIK CLIMATE,0-20000-0-71364,71364,Land (fixed),68.317527,-133.532794,103,Canada,IV
INUVIK UA,0-20001-0-71957,71957,Land (fixed),68.31666667,-133.5166667,103.2,Canada,IV
INVK RACS-ESS,0-124-10010-M009004,M009004,Land (fixed),68.306183,-133.526928,49.58,Canada,IV
IQAL CACS-GSD,0-124-10010-M099002,M099002,Land (fixed),63.755952,-68.51049,102.14,Canada,IV
IQALUIT A,0-20000-0-71909,71909,Land (fixed),63.75,-68.55,33.5,Canada,IV
IQALUIT CLIMATE,0-20000-0-71321,71321,Land (fixed),63.73333333,-68.53333333,20.63,Canada,IV
IQALUIT UA,0-20001-0-71909,71909,Land (fixed),63.75,-68.55,21.9,Canada,IV
IRON SPRINGS AGDM,0-20000-0-71528,71528,Land (fixed),49.9,-112.7333333,858,Canada,IV
IRVINE AGCM,0-20000-0-71795,71795,Land (fixed),49.98916667,-110.2613889,795,Canada,IV
ISACHSEN (AUT),0-20000-0-71074,71074,Land (fixed),78.793968,-102.471566,47.93,Canada,IV
ISLAND FALLS (AUT),0-20000-0-71331,71331,Land (fixed),55.51666667,-102.3333333,298.33,Canada,IV
ISLAND LAKE A,0-20000-0-71145,71145,Land (fixed),53.85,-94.65,235.6,Canada,IV
ISLAND LAKE SOUTH,0-124-0-71654,71654,Land (fixed),54.81683,-113.56,618.7,Canada,IV
IVVAVIK NAT. PARK,0-20000-0-71978,71978,Land (fixed),69.1644,-140.15,243.8,Canada,IV
Inuvik,0-20008-0-INU,INU,Land (fixed),68.317817,-133.534232,107,Canada,IV
Inuvik Riometer,0-124-10001-INU,INU,Land (fixed),68.3,-133.5,15,Canada,IV
Iqaluit Magnetic Observatory,0-124-10001-IQA,IQA,Land (fixed),63.753,-68.518,67,Canada,IV
Iqualuit,0-20008-0-IQU,IQU,Land (fixed),63.75,-68.55000305,20,Canada,IV
JASPER WARDEN,0-20000-0-71486,71486,Land (fixed),52.91666667,-118.0166667,1020,Canada,IV
JEAN COTE AGCM,0-20000-0-71541,71541,Land (fixed),55.91277778,-117.1197222,638,Canada,IV
JIMMY LAKE AWOS,0-20000-0-71023,71023,Land (fixed),54.90833333,-109.9619444,637.1,Canada,IV
JONQUIERE,0-20000-0-71617,71617,Land (fixed),48.425026,-71.142508,127.24,Canada,IV
Jackson,0-20008-0-JAC,JAC,Land (fixed),45.59305573,-63.84167099,90,Canada,IV
Judge Creek,0-124-15007-JudgeCreek,JudgeCreek,Land (fixed),48.58528,-123.674,196,Canada,IV
Jump Creek,0-124-15003-3B23P,3B23P,Land (fixed),48.96944,-124.279,1160,Canada,IV
KAMLOOPS A,0-20000-0-71887,71887,Land (fixed),50.70222222,-120.4419444,345.3,Canada,IV
KAMLOOPS AUT,0-20000-0-71741,71741,Land (fixed),50.68333333,-120.4333333,344.46,Canada,IV
KAPUSKASING A,0-20000-0-71831,71831,Land (fixed),49.41388889,-82.4675,226.5,Canada,IV
KAPUSKASING CDA ON,0-20000-0-71299,71299,Land (fixed),49.405171,-82.442848,222.57,Canada,IV
KEATS POINT,0-124-12001-71058,71058,Land (fixed),69.66667,-121.667,330,Canada,IV
KEJIMKUJIK 1,0-20000-0-71599,71599,Land (fixed),44.41666667,-65.2,125.9,Canada,IV
KELOWNA UA,0-20001-0-71203,71203,Land (fixed),49.94083333,-119.4002778,456,Canada,IV
KELOWNA UBCO,0-124-0-71644,71644,Land (fixed),49.9406,-119.4,456,Canada,IV
KELOWNA,0-20000-0-71203,71203,Land (fixed),49.95722222,-119.3777778,433.1,Canada,IV
KELSEY DAM CS,0-20000-0-71572,71572,Land (fixed),56.03333333,-96.5,187.2,Canada,IV
KEMPTVILLE CS,0-20000-0-71300,71300,Land (fixed),45.005193,-75.637602,99.03,Canada,IV
KENORA A,0-20000-0-71850,71850,Land (fixed),49.79027778,-94.36527778,409.65,Canada,IV
KENORA RCS,0-20000-0-71151,71151,Land (fixed),49.78333333,-94.35,410.35,Canada,IV
KENTVILLE CDA CS,0-20000-0-71671,71671,Land (fixed),45.06666667,-64.46666667,48.7,Canada,IV
KESSLER AGCM,0-20000-0-71796,71796,Land (fixed),52.29027778,-111.1130556,720,Canada,IV
KEY LAKE,0-20000-0-71499,71499,Land (fixed),57.25638889,-105.6175,513.9,Canada,IV
KEY LAKE,0-20000-0-71033,71033,Land (fixed),57.25,-105.6,514,Canada,IV
KGLK,0-124-10010-M119000,M119000,Land (fixed),67.817782,-115.134725,23.87,Canada,IV
KILLAM AGDM,0-20000-0-71228,71228,Land (fixed),52.8475,-111.8719444,674.5,Canada,IV
KILLARNEY (AUT),0-20000-0-71460,71460,Land (fixed),45.968164,-81.488843,196.3,Canada,IV
KINDAKUN ROCKS (AUT),0-20000-0-71472,71472,Land (fixed),53.3156,-132.772,14.7,Canada,IV
KINDERSLEY A,0-20000-0-71129,71129,Land (fixed),51.51666667,-109.1833333,693.72,Canada,IV
KINDERSLEY AIRPORT,0-124-0-73097,73097,Land (fixed),51.51612,-109.178,691.11,Canada,IV
KING CITY NORTH,0-124-0-73074,73074,Land (fixed),43.96353,-79.5741,361,Canada,IV
KINGSTON CLIMATE,0-20000-0-71820,71820,Land (fixed),44.218,-76.595,93,Canada,IV
KINNGAIT,0-20000-0-71575,71575,Land (fixed),64.230626,-76.530694,48.9,Canada,IV
KIRKLAND LAKE,0-20000-0-71301,71301,Land (fixed),48.08333333,-80.05,280,Canada,IV
KITCHEN/WATERLOO,0-20000-0-71368,71368,Land (fixed),43.46083333,-80.37861111,321.6,Canada,IV
KITIMAT FOREST AVE,0-124-0-73007,73007,Land (fixed),54.05643,-128.604,104.6,Canada,IV
KITSCOTY AGCM,0-20000-0-71797,71797,Land (fixed),53.35333333,-110.4161111,664,Canada,IV
KLEEFELD (MAFRI),0-124-0-71646,71646,Land (fixed),49.52967,-96.9155,244.68,Canada,IV
KNGS RACS-GLCORS,0-124-10010-M023003,M023003,Land (fixed),44.218682,-76.517262,83.83,Canada,IV
KNGV RACS-GLCOR,0-124-10010-M113001,M113001,Land (fixed),42.026937,-82.734845,178.18,Canada,IV
KOMAKUK BEACH,0-20000-0-71046,71046,Land (fixed),69.61194444,-140.1969444,13.2,Canada,IV
KOUCHIBOUGUAC CS,0-20000-0-71670,71670,Land (fixed),46.789277,-65.013056,21,Canada,IV
KTMT WCDA-PGC,0-124-10010-M157000,M157000,Land (fixed),54.085968,-128.598063,99.82,Canada,IV
KUGAARUK CLIMATE,0-20000-0-71407,71407,Land (fixed),68.53743,-89.788915,15.8,Canada,IV
KUGLUKTUK A,0-20000-0-71938,71938,Land (fixed),67.81666667,-115.1438889,22.6,Canada,IV
KUGLUKTUK CLIMATE,0-20000-0-71332,71332,Land (fixed),67.8172,-115.1353,22.6,Canada,IV
KUJ2,0-124-10010-M192000,M192000,Land (fixed),55.289996,-77.735261,51.58,Canada,IV
KUUJJUAQ A,0-20000-0-71906,71906,Land (fixed),58.1,-68.41666667,39.93,Canada,IV
KUUJJUAQ,0-20001-0-71906,71906,Land (fixed),58.11666667,-68.41666667,60.2,Canada,IV
KUUJJUARAPIK,0-124-0-71615,71615,Land (fixed),55.3695,-77.6291,30.92,Canada,IV
Kaleden AGRI,0-124-15005-AGKD017,AGKD017,Land (fixed),49.399,-119.605,440,Canada,IV
Kamloops Federal Building,0-124-15003-267,267,Land (fixed),50.67477,-120.334016,377,Canada,IV
Kejimkujik,0-20008-0-KEJ,KEJ,Land (fixed),44.43361282,-65.20583344,127,Canada,IV
Kelowna,0-20008-0-KLW,KLW,Land (fixed),49.97000122,-119.3799973,431,Canada,IV
Kelowna KLO Road,0-124-15003-571,571,Land (fixed),49.862119,-119.467461,350,Canada,IV
Kinaskan Lake,0-124-15003-4D11P,4D11P,Land (fixed),57.57869,-130.263,1020,Canada,IV
Kitimat Haisla Village,0-124-15003-271,271,Land (fixed),53.973228,-128.650768,5,Canada,IV
Kitimat Haul Road,0-124-15003-75,75,Land (fixed),54.029194,-128.70269,11,Canada,IV
Kitimat Industrial Avenue,0-124-15003-576,576,Land (fixed),54.061,-128.688,21,Canada,IV
Kitimat Riverlodge,0-124-15003-77,77,Land (fixed),54.05389,-128.671436,18,Canada,IV
Kitimat Whitesail,0-124-15003-80,80,Land (fixed),54.066909,-128.639131,94,Canada,IV
Kitimat Yacht Club,0-124-15003-418,418,Land (fixed),53.9847,-128.6917,2,Canada,IV
Kluane Lake Research Station (Primary Stn),0-124-34000-KLRS,KLRS,Land (fixed),61.02759,-138.41045,793,Canada,IV
Knudson Lake,0-124-15003-1A15B,1A15B,Land (fixed),54.30278,-120.782,1601,Canada,IV
Kostal Lake,0-124-15003-1E10P,1E10P,Land (fixed),52.20367,-120.032,1770,Canada,IV
L'ACADIE,0-20000-0-71372,71372,Land (fixed),45.294,-73.3498,43.8,Canada,IV
L'ASSOMPTION,0-20000-0-71524,71524,Land (fixed),45.8,-73.43333333,17.71,Canada,IV
L'ETAPE,0-20000-0-71382,71382,Land (fixed),47.55,-71.21666667,789.24,Canada,IV
LA BAIE,0-20000-0-71388,71388,Land (fixed),48.2981,-70.9195,150.74,Canada,IV
LA CRETE AGCM,0-20000-0-71542,71542,Land (fixed),58.17194444,-116.3427778,323,Canada,IV
LA GLACE AGCM,0-20000-0-71543,71543,Land (fixed),55.42194444,-119.2547222,760,Canada,IV
LA GRANDE 4 A,0-20000-0-71003,71003,Land (fixed),53.75472222,-73.67527778,306.3,Canada,IV
LA GRANDE IV UA,0-20001-0-71823,71823,Land (fixed),53.75722222,-73.67916667,302.4,Canada,IV
LA GRANDE IV,0-20000-0-71823,71823,Land (fixed),53.75,-73.66666667,301.89,Canada,IV
LA GRANDE RIVIERE A,0-20000-0-71827,71827,Land (fixed),53.63333333,-77.7,195.1,Canada,IV
LA HAVE BANK,0-124-600-4400150,4400150,Sea (fixed),42.505,-64.018,0,Canada,IV
LA PEROUSE BANK,0-124-600-4600206,4600206,Sea (fixed),48.835,-125.998,0,Canada,IV
LA POCATIERE,0-20000-0-71713,71713,Land (fixed),47.35,-70.01666667,30.54,Canada,IV
LA RONGE A,0-20000-0-71922,71922,Land (fixed),55.15,-105.2666667,379.2,Canada,IV
LA RONGE RCS,0-20000-0-71586,71586,Land (fixed),55.13333333,-105.2666667,376.66,Canada,IV
LA SCIE,0-20000-0-71337,71337,Land (fixed),49.9,-55.66666667,194,Canada,IV
LA TUQUE,0-20000-0-71378,71378,Land (fixed),47.411111,-72.7875,166.8,Canada,IV
LAC BENOIT,0-20000-0-71520,71520,Land (fixed),51.51666667,-71.1,548,Canada,IV
LAC EON,0-20000-0-71421,71421,Land (fixed),51.86738,-63.283231,568.29,Canada,IV
LAC LA BICHE CLIMATE,0-20000-0-71316,71316,Land (fixed),54.7689,-112.0236,567,Canada,IV
LAC LA MARTRE,0-20000-0-71163,71163,Land (fixed),63.1343,-117.244497,269.76,Canada,IV
LAC SAINT-PIERRE,0-20000-0-71198,71198,Land (fixed),46.18333333,-72.91666667,16.2,Canada,IV
LACOMBE CDA 2,0-20000-0-71242,71242,Land (fixed),52.448986,-113.756766,858.46,Canada,IV
LADY FRANKLIN POINT A,0-20000-0-71937,71937,Land (fixed),68.5,-113.2166667,15.9,Canada,IV
LAGOON CITY,0-20000-0-71282,71282,Land (fixed),44.548,-79.221,220.7,Canada,IV
LAKE NIPISSING,0-124-600-4500152,4500152,Sea (fixed),46.23296,-79.7155,196,Canada,IV
LAKE OF THE WOODS,0-124-600-4500148,4500148,Sea (fixed),49.65111,-94.50194,322,Canada,IV
LAKE SIMCOE,0-124-600-4500151,4500151,Sea (fixed),44.50042,-79.36667,219,Canada,IV
LAKE ST. CLAIR,0-124-600-4500147,4500147,Sea (fixed),42.43,-82.683,173,Canada,IV
LAKE SUPERIOR PROVINCIAL PARK,0-20000-0-71640,71640,Land (fixed),47.71666667,-84.8,398.78,Canada,IV
LAKE WINNIPEG N.,0-124-600-4500144,4500144,Sea (fixed),53.23,-98.29,216,Canada,IV
LAKE WINNIPEG NARROWS,0-124-600-4500145,4500145,Sea (fixed),51.87,-96.97,217,Canada,IV
LAKE WINNIPEG S. BASIN,0-124-600-4500140,4500140,Sea (fixed),50.8,-96.733,217,Canada,IV
LANGARA ISLAND RCS,0-20000-0-71903,71903,Land (fixed),54.25,-133.05,46.9,Canada,IV
LANGARA,0-20000-0-71899,71899,Land (fixed),54.25527778,-133.0580556,42.69,Canada,IV
LANSDOWNE HOUSE (AUT),0-20000-0-71846,71846,Land (fixed),52.196278,-87.935753,250.08,Canada,IV
LAST MOUNTAIN CS,0-20000-0-71556,71556,Land (fixed),51.4,-105.2333333,497.72,Canada,IV
LATERRIERE,0-20000-0-71040,71040,Land (fixed),48.3,-71.11666667,161.52,Canada,IV
LCUR RACS-GLCOR,0-124-10010-M113002,M113002,Land (fixed),45.98053,-81.924458,180.99,Canada,IV
LEADER AIRPORT,0-20000-0-71459,71459,Land (fixed),50.9,-109.5,675.5,Canada,IV
LEEDALE AGDM,0-20000-0-71565,71565,Land (fixed),52.55305556,-114.4725,947,Canada,IV
LEGAL AGCM,0-20000-0-71544,71544,Land (fixed),54.00305556,-113.4744444,680,Canada,IV
LEMIEUX,0-20000-0-71616,71616,Land (fixed),46.3038,-72.0605,96.7,Canada,IV
LENNOXVILLE,0-20000-0-71611,71611,Land (fixed),45.36666667,-71.81666667,180.51,Canada,IV
LETHBRIDGE CDA,0-20000-0-71243,71243,Land (fixed),49.6846,-112.7676,910,Canada,IV
LETHBRIDGE DEMO FARM AGDM,0-20000-0-71509,71509,Land (fixed),49.68333333,-112.75,903,Canada,IV
LETHBRIDGE,0-20000-0-71267,71267,Land (fixed),49.63027778,-112.7988889,929,Canada,IV
LG1G,0-124-10010-932053,932053,Land (fixed),53.698032,-78.570984,64.24,Canada,IV
LG4G RACS,0-124-10010-M162001,M162001,Land (fixed),53.833306,-73.513611,459.95,Canada,IV
LILLOOET,0-20000-0-71999,71999,Land (fixed),50.68333333,-121.9333333,239.5,Canada,IV
LINDBERGH AGDM,0-20000-0-71567,71567,Land (fixed),53.94277778,-110.5788889,630,Canada,IV
LINDBURG LANDING,0-20000-0-71682,71682,Land (fixed),61.11666667,-122.85,183,Canada,IV
LINDEN AGCM,0-20000-0-71035,71035,Land (fixed),51.61888889,-113.6555556,914,Canada,IV
LITTLE CHICAGO,0-20000-0-71164,71164,Land (fixed),67.1792,-130.2281,62.5,Canada,IV
LITTLE FLATLAND ISLAND (AUT),0-124-0-71468,71468,Land (fixed),49.68988,-88.3058,261.06,Canada,IV
LIVERPOOL BAY,0-20000-0-71960,71960,Land (fixed),69.60416667,-130.9105556,101.9,Canada,IV
LLOYDMINSTER,0-20000-0-71871,71871,Land (fixed),53.30916667,-110.0725,668.7,Canada,IV
LONDON A,0-20000-0-71623,71623,Land (fixed),43.03305556,-81.15111111,278,Canada,IV
LONDON CS,0-20000-0-71622,71622,Land (fixed),43.01666667,-81.13333333,272.73,Canada,IV
LONG POINT (AUT),0-20000-0-71464,71464,Land (fixed),42.53333333,-80.03333333,175,Canada,IV
LONGSTAFF BLUFF,0-20000-0-71091,71091,Land (fixed),68.89861111,-75.14083333,160.8,Canada,IV
LONGUE-POINTE-DE-MINGAN,0-20000-0-71512,71512,Land (fixed),50.26666667,-64.21666667,8.86,Canada,IV
LOON LAKE RCS,0-20000-0-71273,71273,Land (fixed),54.0197,-109.1383,545.6,Canada,IV
LOUISBOURG,0-124-0-71596,71596,Land (fixed),45.90167,-59.9961,15,Canada,IV
LOURDES DE BLANC SABLON A,0-20000-0-71808,71808,Land (fixed),51.45,-57.18333333,37.18,Canada,IV
LOWER CARP LAKE,0-20000-0-71680,71680,Land (fixed),63.6,-113.85,373.4,Canada,IV
LPOC RACS-ESS,0-124-10010-962002,962002,Land (fixed),47.341383,-70.008554,131.1,Canada,IV
LUCKY LAKE,0-20000-0-71455,71455,Land (fixed),50.95,-107.15,664.7,Canada,IV
LUCY ISLAND LIGHTSTATION,0-20000-0-71220,71220,Land (fixed),54.28333333,-130.6,22.6,Canada,IV
LUPIN CS,0-20000-0-71470,71470,Land (fixed),65.755618,-111.245862,494.59,Canada,IV
LUTSELK'E CS- Station Closed,0-20000-0-71529,71529,Land (fixed),62.4156,-110.6903,178.9,Canada,IV
LYNN LAKE RCS,0-20000-0-71632,71632,Land (fixed),56.85,-101.0666667,354.2,Canada,IV
LYNN LAKE,0-20000-0-71078,71078,Land (fixed),56.86388889,-101.0761111,356.6,Canada,IV
LYTTON RCS,0-20000-0-71765,71765,Land (fixed),50.22444444,-121.5819444,225,Canada,IV
Lac Edouard,0-20008-0-LED,LED,Land (fixed),47.68166733,-72.44277954,243,Canada,IV
Lac La Biche (Alberta),0-20008-0-LLB,LLB,Land (fixed),54.953809,-112.466649,548,Canada,IV
London (Ontario),0-20008-0-LXY,LXY,Land (fixed),43.00999832,-81.26999664,100,Canada,IV
Longwoods,0-20008-0-LON,LON,Land (fixed),42.88472366,-81.48055267,239,Canada,IV
Longworth Upper,0-124-15003-1A05P,1A05P,Land (fixed),53.95083,-121.443,1693,Canada,IV
Lower Nicola (Sunshine Valley) AGRI,0-124-15005-AGLN018,AGLN018,Land (fixed),50.14583,-120.933,561,Canada,IV
Lu Lake,0-124-15003-4B15P,4B15P,Land (fixed),54.19617,-126.305,1300,Canada,IV
Lytton,0-124-42001-71812,71812,Land (fixed),50.23333,-121.567,225,Canada,IV
MACKENZIE AIRPORT AUTO,0-20000-0-71944,71944,Land (fixed),55.30525,-123.137972,694,Canada,IV
MACKENZIE,0-20000-0-71290,71290,Land (fixed),55.29944444,-123.1333333,690.1,Canada,IV
MACMILLAN PASS,0-20000-0-71990,71990,Land (fixed),63.24366,-130.037282,1377.79,Canada,IV
MALAHAT,0-20000-0-71774,71774,Land (fixed),48.56666667,-123.5166667,365.8,Canada,IV
MALAY FALLS,0-124-0-73029,73029,Land (fixed),44.98694,-62.4833,39.6,Canada,IV
MANIWAKI AIRPORT,0-20000-0-71721,71721,Land (fixed),46.273566,-75.987758,199.62,Canada,IV
MANIWAKI UA,0-20000-0-71722,71722,Land (fixed),46.30194444,-76.00611111,188.58,Canada,IV
MANKOTA,0-124-0-71204,71204,Land (fixed),49.1,-107.017,830,Canada,IV
MANNING AGDM,0-20000-0-71229,71229,Land (fixed),56.97388889,-117.4508333,457,Canada,IV
MANNVILLE AGCM,0-20000-0-71047,71047,Land (fixed),53.45555556,-111.2552778,656,Canada,IV
MANOUANE EST,0-20000-0-71521,71521,Land (fixed),50.65,-70.51666667,496,Canada,IV
MANYBERRIES AGCM,0-20000-0-71051,71051,Land (fixed),49.36388889,-110.6780556,927,Canada,IV
MAPLE CREEK,0-20000-0-71453,71453,Land (fixed),49.9025,-109.4661,766.7,Canada,IV
MARGARET LAKE,0-20000-0-71977,71977,Land (fixed),68.8,-140.8333333,568,Canada,IV
MARTICOT ISLAND,0-20000-0-71692,71692,Land (fixed),47.31666667,-54.58333333,27.7,Canada,IV
MARY'S HARBOUR A,0-20000-0-71817,71817,Land (fixed),52.30361111,-55.83361111,10.6,Canada,IV
MARY'S HARBOUR,0-20000-0-71339,71339,Land (fixed),52.30361111,-55.8325,11.6,Canada,IV
MASINASIN AGDM,0-20000-0-71345,71345,Land (fixed),49.13666667,-111.6516667,947.9,Canada,IV
MATAGAMI A,0-20000-0-71947,71947,Land (fixed),49.76166667,-77.80277778,279.8,Canada,IV
MATAGAMI,0-20000-0-71821,71821,Land (fixed),49.757833,-77.793222,281.03,Canada,IV
MCBride Upper,0-124-15003-1A02P,1A02P,Land (fixed),53.30775,-120.317,1580,Canada,IV
MCCREARY,0-20000-0-71149,71149,Land (fixed),50.7,-99.51666667,349.28,Canada,IV
MCHN RACS-GLCORS,0-124-10010-M093001,M093001,Land (fixed),47.961326,-84.900844,189.49,Canada,IV
MCINNES ISLAND,0-20000-0-71897,71897,Land (fixed),52.26166667,-128.7194444,25.9,Canada,IV
MCTAVISH,0-20000-0-71612,71612,Land (fixed),45.5,-73.56666667,71.81,Canada,IV
MEADOW LAKE A,0-20000-0-71125,71125,Land (fixed),54.13333333,-108.5166667,480.67,Canada,IV
MEADOW LAKE,0-20000-0-71970,71970,Land (fixed),54.11666667,-108.5,481,Canada,IV
MECHANIC SETTLEMENT,0-20000-0-71787,71787,Land (fixed),45.693611,-65.165,403,Canada,IV
MEDICINE HAT RCS,0-20000-0-71026,71026,Land (fixed),50.0251,-110.7173,715,Canada,IV
MEDICINE HAT,0-20000-0-71247,71247,Land (fixed),50.01888889,-110.7208333,716.9,Canada,IV
MELFORT,0-20000-0-71456,71456,Land (fixed),52.8,-104.5833333,485.84,Canada,IV
MELITA,0-20000-0-71447,71447,Land (fixed),49.2813,-100.9864,445.9,Canada,IV
MERRITT,0-20000-0-71557,71557,Land (fixed),50.1,-120.7666667,591,Canada,IV
MIDDLE NOMAD,0-124-600-4600004,4600004,Sea (fixed),50.93,-136.095,0,Canada,IV
MILDRED LAKE,0-20000-0-71255,71255,Land (fixed),57.040366,-111.560452,310,Canada,IV
MILK RIVER RIDGE RESERVOIR,0-20000-0-71015,71015,Land (fixed),49.28388889,-112.5383333,1305,Canada,IV
MILK RIVER,0-20000-0-71244,71244,Land (fixed),49.133997,-112.051044,1049.22,Canada,IV
MILLERTOWN CLIMATE,0-124-0-71856,71856,Land (fixed),48.8167,-56.5344,203.6,Canada,IV
MIRAMICHI RCS,0-20000-0-71744,71744,Land (fixed),47,-65.45,33,Canada,IV
MISCOU ISLAND (AUT),0-20000-0-71719,71719,Land (fixed),48.008918,-64.49447,4,Canada,IV
MISTOOK,0-20000-0-71381,71381,Land (fixed),48.58333333,-71.7,112,Canada,IV
MOBILE UPPER AIR STATION-ATLANTIC,0-20000-0-71194,71194,Land (fixed),40,-50,0,Canada,IV
MOBILE UPPER AIR STATION-ONTARIO,0-20000-0-71117,71117,Land (fixed),46.26583,-79.41833,208,Canada,IV
MONCTON A,0-20000-0-71705,71705,Land (fixed),46.10527778,-64.68388889,70.7,Canada,IV
MONO CENTRE,0-124-0-71098,71098,Land (fixed),44.0325,-80.0243,436.05,Canada,IV
MONT-JOLI,0-124-0-71658,71658,Land (fixed),48.60519,-68.1957,55.81,Canada,IV
MONT-JOLI A,0-20000-0-71718,71718,Land (fixed),48.6,-68.21666667,52.4,Canada,IV
MONTREAL/PIERRE ELLIOTT TRUDEAU INT'L A,0-20000-0-71627,71627,Land (fixed),45.46666667,-73.75,35.97,Canada,IV
MONTREAL/PIERRE ELLIOTT TRUDEAU INTL,0-20000-0-71183,71183,Land (fixed),45.467803,-73.741886,30.73,Canada,IV
MONTREAL/ST-HUBERT A,0-20000-0-71371,71371,Land (fixed),45.51666667,-73.41666667,27.4,Canada,IV
MOOSE CREEK WELLS,0-124-0-71635,71635,Land (fixed),45.25121,-74.9629,84.55,Canada,IV
MOOSE JAW A,0-20000-0-71864,71864,Land (fixed),50.33333333,-105.55,576.7,Canada,IV
MOOSE JAW CS,0-20000-0-71539,71539,Land (fixed),50.31666667,-105.5333333,569.15,Canada,IV
MOOSONEE A,0-20000-0-71836,71836,Land (fixed),51.29138889,-80.6075,9.1,Canada,IV
MOOSONEE RCS,0-20000-0-71309,71309,Land (fixed),51.25,-80.65,10.27,Canada,IV
MOOSONEE UA,0-20001-0-71836,71836,Land (fixed),51.26666667,-80.65,10,Canada,IV
MOOSONEE,0-20000-0-71398,71398,Land (fixed),51.29111111,-80.60777778,9.1,Canada,IV
MORDEN CDA CS,0-20000-0-71564,71564,Land (fixed),49.18333333,-98.08333333,297.21,Canada,IV
MORRIN AGDM,0-20000-0-71257,71257,Land (fixed),51.66027778,-112.675,836,Canada,IV
MOSSLEIGH AGCM,0-20000-0-71057,71057,Land (fixed),50.6725,-113.3486111,965,Canada,IV
MOULD BAY CS,0-20000-0-71989,71989,Land (fixed),76.23333333,-119.3333333,0.28,Canada,IV
MOUNT FOREST (AUT),0-20000-0-71631,71631,Land (fixed),43.98333333,-80.73333333,413.25,Canada,IV
MUNDARE AGDM,0-20000-0-71354,71354,Land (fixed),53.56666667,-112.3,683,Canada,IV
MUSKOKA A,0-20000-0-71630,71630,Land (fixed),44.96666667,-79.3,281.9,Canada,IV
MUSKOKA,0-20000-0-71532,71532,Land (fixed),44.97472222,-79.30333333,281.9,Canada,IV
MUSKRAT DAM,0-20000-0-71678,71678,Land (fixed),53.44138889,-91.76277778,277.7,Canada,IV
MYRA WCDA-PGC,0-124-10010-M107001,M107001,Land (fixed),49.550973,-125.570706,620.1,Canada,IV
MYRNAM AGCM,0-20000-0-71065,71065,Land (fixed),53.72,-111.1144444,580,Canada,IV
Mable Lake AGRI,0-124-15005-AGML019,AGML019,Land (fixed),50.39361,-118.776,729,Canada,IV
Mamit Lake AGRI,0-124-15005-AGML020,AGML020,Land (fixed),50.36222,-120.804,979,Canada,IV
Martin's Gulch,0-124-15007-MartinsGulch,MartinsGulch,Land (fixed),48.51611,-123.764,512,Canada,IV
Mayo,0-124-42001-71965,71965,Land (fixed),63.61639,-135.868,503.8,Canada,IV
Meanook Magnetic Observator,0-124-10001-MEA,MEA,Land (fixed),54.616,-113.347,700,Canada,IV
Merritt Parcel Street,0-124-15003-94,94,Land (fixed),50.105084,-120.792136,603,Canada,IV
Mingan,0-20008-0-MIN,MIN,Land (fixed),50.26666641,-64.21666718,14,Canada,IV
Mission Creek,0-124-15003-2F05P,2F05P,Land (fixed),49.94467,-118.95,1780,Canada,IV
Monte Creek AGRI,0-124-15005-AGMC021,AGMC021,Land (fixed),50.64361,-119.933,385,Canada,IV
Montreal,0-20008-0-MTL,MTL,Land (fixed),45.48333359,-73.59999847,24,Canada,IV
Moosonee,0-20008-0-MOO,MOO,Land (fixed),51.27000046,-80.65000153,10,Canada,IV
Mosely Creek Upper,0-124-15003-3A24P,3A24P,Land (fixed),51.77617,-124.621,1650,Canada,IV
Mould Bay,0-20008-0-MBC,MBC,Land (fixed),76.25,-119.3499985,58,Canada,IV
Mould Bay Magnetic Observatory,0-124-10001-MBC,MBC,Land (fixed),76.315,-119.362,40,Canada,IV
Mount Arrowsmith,0-124-15003-3B26P,3B26P,Land (fixed),49.20738,-124.568,1460,Canada,IV
Mount Cook,0-124-15003-1E02P,1E02P,Land (fixed),52.18278,-119.321,1550,Canada,IV
Moyie Mountain,0-124-15003-2C10P,2C10P,Land (fixed),49.25217,-115.767,1930,Canada,IV
Mt McDonald,0-124-15007-MtMcDonald,MtMcDonald,Land (fixed),48.44194,-123.569,436,Canada,IV
NAGAGAMI (AUT),0-20000-0-71832,71832,Land (fixed),49.7468,-84.1637,264,Canada,IV
NAIN A,0-20000-0-71902,71902,Land (fixed),56.55,-61.68333333,6.7,Canada,IV
NAIN,0-20000-0-71665,71665,Land (fixed),56.55,-61.6833,7.6,Canada,IV
NAKISKA RIDGETOP,0-20000-0-71245,71245,Land (fixed),50.93333333,-115.1833333,2448,Canada,IV
NAKUSP CS,0-20000-0-71216,71216,Land (fixed),50.26666667,-117.8166667,512.1,Canada,IV
NANAKWA SHOAL,0-124-600-4600181,4600181,Sea (fixed),53.833,-128.831,0,Canada,IV
NANO WCDA-PGC,0-124-10010-957000,957000,Land (fixed),49.294806,-124.086461,24.11,Canada,IV
NANTES,0-124-0-73115,73115,Land (fixed),45.60637,-70.9327,475.34,Canada,IV
NAPPAN AUTO,0-20000-0-71311,71311,Land (fixed),45.75,-64.23333333,20.8,Canada,IV
NATASHQUAN A,0-20000-0-71813,71813,Land (fixed),50.18333333,-61.78333333,9.13,Canada,IV
NATASHQUAN,0-20000-0-71513,71513,Land (fixed),50.19,-61.78888889,11.9,Canada,IV
NEIR AGDM,0-20000-0-71495,71495,Land (fixed),51.36944444,-114.0991667,1145,Canada,IV
NELSON CS,0-20000-0-71776,71776,Land (fixed),49.48333333,-117.3,534.9,Canada,IV
NEW CARLISLE 1,0-20000-0-71619,71619,Land (fixed),48,-65.31666667,46.28,Canada,IV
NEW RICHMOND EAST,0-124-0-71659,71659,Land (fixed),48.15654,-65.8419,2.91,Canada,IV
NEW SEREPTA AGCM,0-20000-0-71067,71067,Land (fixed),53.26222222,-113.165,765,Canada,IV
NICHOLSON PENINSULA,0-124-12001-73230,73230,Land (fixed),69.92551,-128.973,88,Canada,IV
NICOLET,0-20000-0-71723,71723,Land (fixed),46.225979,-72.657072,7,Canada,IV
NIPAWIN,0-20000-0-71130,71130,Land (fixed),53.3325,-104.0083333,371.9,Canada,IV
NIPAWIN,0-20000-0-71312,71312,Land (fixed),53.31666667,-104,368,Canada,IV
NORDEGG CS,0-20000-0-71060,71060,Land (fixed),52.48333333,-116.0333333,1317.75,Canada,IV
NORMAN WELLS A,0-20000-0-71043,71043,Land (fixed),65.2825,-126.8002778,72.54,Canada,IV
NORMAN WELLS CLIMATE,0-20000-0-71480,71480,Land (fixed),65.2875,-126.7534,92.32,Canada,IV
NORMAN WELLS UA,0-20001-0-71043,71043,Land (fixed),65.28333333,-126.75,93.6,Canada,IV
NORMANDIN,0-20000-0-71379,71379,Land (fixed),48.83333333,-72.53333333,150.32,Canada,IV
NORTH BATTLEFORD RCS,0-20000-0-71754,71754,Land (fixed),52.769275,-108.250369,548,Canada,IV
NORTH BATTLEFORD,0-20000-0-71876,71876,Land (fixed),52.76916667,-108.2436111,548.3,Canada,IV
NORTH BAY A,0-20000-0-71731,71731,Land (fixed),46.36361111,-79.42277778,370.3,Canada,IV
NORTH BAY AIRPORT,0-124-0-73016,73016,Land (fixed),46.37272,-79.4236,367,Canada,IV
NORTH CAPE,0-20000-0-71987,71987,Land (fixed),47.05,-63.98333333,3,Canada,IV
NORTH CHANNEL EAST,0-124-600-4500154,4500154,Sea (fixed),46.05071,-82.63726,176,Canada,IV
NORTH COWICHAN,0-20000-0-71927,71927,Land (fixed),48.81666667,-123.7166667,44.8,Canada,IV
NORTH GEORGIAN BAY,0-124-600-4500137,4500137,Sea (fixed),45.544,-81.015,176,Canada,IV
NORTH HECATE STRAIT,0-124-600-4600183,4600183,Sea (fixed),53.617,-131.105,0,Canada,IV
NORTH MOUNTAIN CS,0-20000-0-71604,71604,Land (fixed),46.81666667,-60.66666667,451,Canada,IV
NORTH NOMAD,0-124-600-4600184,4600184,Sea (fixed),53.915,-138.85,0,Canada,IV
NORTHEAST MARGAREE,0-124-0-73027,73027,Land (fixed),46.3685,-60.9761,46.42,Canada,IV
NORWAY HOUSE,0-20000-0-71410,71410,Land (fixed),53.95833333,-97.84416667,223.7,Canada,IV
NRC1 CACS-GSD,0-124-10010-943020,943020,Land (fixed),45.454153,-75.623824,116.04,Canada,IV
NTKA WCDA-PGC,0-124-10010-M007000,M007000,Land (fixed),49.59236,-126.616593,15.98,Canada,IV
NW LAKE ONTARIO AJAX,0-124-600-4500159,4500159,Sea (fixed),43.76667,-78.98361,74,Canada,IV
Nitchequon,0-20008-0-NCQ,NCQ,Land (fixed),53.20000076,-70.90000153,550,Canada,IV
North Basin,0-124-15007-NorthBasin,NorthBasin,Land (fixed),48.57222,-123.707,280,Canada,IV
Nostetuko River,0-124-15003-3A22P,3A22P,Land (fixed),51.24367,-124.461,1500,Canada,IV
OAKPOINT MARINE,0-20000-0-71144,71144,Land (fixed),50.48333333,-98.03333333,250.82,Canada,IV
OLD CROW RCS,0-20000-0-71044,71044,Land (fixed),67.56666667,-139.8333333,251.2,Canada,IV
OLDS AGDM,0-20000-0-71258,71258,Land (fixed),51.75861111,-114.0847222,1046,Canada,IV
OLIVER AGDM,0-20000-0-71351,71351,Land (fixed),53.65,-113.35,665,Canada,IV
ONATCHIWAY,0-20000-0-71387,71387,Land (fixed),48.88333333,-71.01666667,307.75,Canada,IV
ONEFOUR CDA,0-20000-0-71116,71116,Land (fixed),49.11666667,-110.4666667,934.55,Canada,IV
OOTSA LAKE SKINS LAKE,0-20000-0-71679,71679,Land (fixed),53.76666667,-125.9833333,859.35,Canada,IV
OSBORNE HEAD,0-124-12001-71324,71324,Land (fixed),44.61278,-63.4225,31,Canada,IV
OSHAWA,0-20000-0-71697,71697,Land (fixed),43.92277778,-78.88333333,139.9,Canada,IV
OSOYOOS CS,0-20000-0-71215,71215,Land (fixed),49.0283,-119.4411,282.9,Canada,IV
OTTAWA CDA RCS,0-20000-0-71063,71063,Land (fixed),45.382369,-75.714017,79.17,Canada,IV
OTTAWA MACDONALD-CARTIER INT'L A,0-20000-0-71628,71628,Land (fixed),45.3225,-75.66916667,114,Canada,IV
OUTLOOK PFRA,0-20000-0-71551,71551,Land (fixed),51.46666667,-107.05,540.93,Canada,IV
OYEN AGDM,0-20000-0-71342,71342,Land (fixed),51.38333333,-110.35,766.67,Canada,IV
Ogoki Post,0-124-42001-71652,71652,Land (fixed),51.65811,-85.9011,181.1,Canada,IV
Ottawa Magnetic Observatory,0-124-10001-OTT,OTT,Land (fixed),45.403,-75.552,75,Canada,IV
Oyama Lake,0-124-15003-2F19P,2F19P,Land (fixed),50.11633,-119.279,1360,Canada,IV
PAKOWKI LAKE AGCM,0-20000-0-71070,71070,Land (fixed),49.22472222,-111.1261111,915,Canada,IV
PANGNIRTUNG,0-20000-0-71826,71826,Land (fixed),66.13333333,-65.7,33.6,Canada,IV
PARC NATIONAL DES PINGUALUIT,0-20000-0-71976,71976,Land (fixed),61.3,-73.66666667,500.76,Canada,IV
PARENT,0-20000-0-71726,71726,Land (fixed),47.91666667,-74.61666667,443.83,Canada,IV
PARRSBORO,0-20000-0-71493,71493,Land (fixed),45.4,-64.33333333,30.89,Canada,IV
PARRY SOUND CCG,0-20000-0-71172,71172,Land (fixed),45.33333333,-80.03333333,176.3,Canada,IV
PARY RACS-GLCORS,0-124-10010-M023001,M023001,Land (fixed),45.338544,-80.035883,181.06,Canada,IV
PAULATUK,0-20000-0-71984,71984,Land (fixed),69.35,-124.0666667,6.3,Canada,IV
PEACE RIVER A,0-20000-0-71068,71068,Land (fixed),56.22694444,-117.4472222,570.9,Canada,IV
PEAWANUCK (AUT),0-20000-0-71434,71434,Land (fixed),54.990319,-85.440717,52.74,Canada,IV
PEKISKO,0-124-0-71669,71669,Land (fixed),50.36851,-114.415,1395.34,Canada,IV
PELLY ISLAND,0-20000-0-71502,71502,Land (fixed),69.61666667,-135.4333333,17,Canada,IV
PELLY RANCH FORT SELKIRK,0-124-0-73013,73013,Land (fixed),62.83339,-137.312,436.39,Canada,IV
PEMBERTON AIRPORT CS,0-20000-0-71777,71777,Land (fixed),50.3,-122.7333333,204.31,Canada,IV
PEMBROKE CLIMATE,0-20000-0-71196,71196,Land (fixed),45.85,-77.25,159.13,Canada,IV
PENTICTON A,0-20000-0-71889,71889,Land (fixed),49.4625,-119.6022222,344.4,Canada,IV
PEORIA AGDM,0-20000-0-71348,71348,Land (fixed),55.62111111,-118.2930556,621.21,Canada,IV
PETAWAWA A,0-20000-0-71625,71625,Land (fixed),45.95,-77.31666667,130.1,Canada,IV
PETAWAWA AWOS,0-20000-0-71531,71531,Land (fixed),45.91666667,-77.3,130.1,Canada,IV
PETERBOROUGH TRENT U,0-20000-0-71672,71672,Land (fixed),44.35,-78.28333333,216,Canada,IV
PETERBOROUGH,0-20000-0-71436,71436,Land (fixed),44.23,-78.36333333,191.4,Canada,IV
PG Marsulex,0-124-15003-233,233,Land (fixed),53.845173,-122.73395,595,Canada,IV
PGC5 WCDA-PGC,0-124-10010-987003,987003,Land (fixed),48.648529,-123.451111,22.54,Canada,IV
PICKLE LAKE (AUT),0-20000-0-71835,71835,Land (fixed),51.43333333,-90.21666667,390.8,Canada,IV
PICKLE LAKE A,0-20000-0-71845,71845,Land (fixed),51.44638889,-90.21416667,386.2,Canada,IV
PICKLE LAKE UA,0-20001-0-71845,71845,Land (fixed),51.45,-90.2,386.2,Canada,IV
PICL CACS-GSD,0-124-10010-M013001,M013001,Land (fixed),51.4798,-90.161964,353.03,Canada,IV
PILGER,0-124-0-71655,71655,Land (fixed),52.41898,-105.153,555.65,Canada,IV
PILOT MOUND (AUT),0-20000-0-71148,71148,Land (fixed),49.18333333,-98.9,471,Canada,IV
PINAWA,0-20000-0-71448,71448,Land (fixed),50.16666667,-96.05,266.61,Canada,IV
PINCHER CREEK CLIMATE,0-20000-0-71736,71736,Land (fixed),49.51666667,-114,1187.69,Canada,IV
PINCHER CREEK,0-20000-0-71085,71085,Land (fixed),49.52055556,-113.9972222,1189.6,Canada,IV
PITT MEADOWS CS,0-20000-0-71775,71775,Land (fixed),49.2,-122.6833333,5,Canada,IV
POINT ATKINSON,0-20000-0-71037,71037,Land (fixed),49.31666667,-123.25,13,Canada,IV
POINT LEPREAU CS,0-124-0-71699,71699,Land (fixed),45.07315,-66.4494,6,Canada,IV
POINT PELEE CS,0-20000-0-71303,71303,Land (fixed),41.94861111,-82.51888889,176.8,Canada,IV
POINT PETRE (AUT),0-20000-0-71430,71430,Land (fixed),43.83333333,-77.15,78.6,Canada,IV
POINTE CLAVEAU,0-20000-0-71189,71189,Land (fixed),48.25,-70.1,7.98,Canada,IV
POINTE DE L'ISLET,0-20000-0-71190,71190,Land (fixed),48.135333,-69.716938,7,Canada,IV
POINTE NOIRE CS,0-20000-0-71390,71390,Land (fixed),50.15,-66.43333333,29.87,Canada,IV
POINTE-AU-PERE (INRS),0-20000-0-71554,71554,Land (fixed),48.51391,-68.468336,4,Canada,IV
POINTE-DES-MONTS,0-20000-0-71427,71427,Land (fixed),49.31666667,-67.36666667,5.53,Canada,IV
POLLOCKVILLE AGDM,0-20000-0-71259,71259,Land (fixed),51.12527778,-111.7052778,750,Canada,IV
POND INLET A,0-20000-0-71095,71095,Land (fixed),72.68944444,-77.96888889,61.6,Canada,IV
POND INLET CLIMATE,0-20000-0-71576,71576,Land (fixed),72.68333333,-77.95,66.27,Canada,IV
POOLS ISLAND,0-20000-0-71931,71931,Land (fixed),49.1,-53.56666667,19.3,Canada,IV
PORT ALBERNI (AUT),0-20000-0-71475,71475,Land (fixed),49.316583,-124.926833,76.2,Canada,IV
PORT AUX BASQUES,0-20000-0-71197,71197,Land (fixed),47.574,-59.155,39.7,Canada,IV
PORT COLBORNE,0-124-600-4500142,4500142,Sea (fixed),42.73671,-79.28986,173,Canada,IV
PORT COLBORNE (AUT),0-20000-0-71463,71463,Land (fixed),42.8667,-79.25,183.5,Canada,IV
PORT HARDY A,0-20000-0-71109,71109,Land (fixed),50.68055556,-127.3666667,21.6,Canada,IV
PORT HARDY UA,0-20001-0-71109,71109,Land (fixed),50.685,-127.3758333,17.4,Canada,IV
PORT HAWKESBURY,0-20000-0-71041,71041,Land (fixed),45.65666667,-61.36805556,114.9,Canada,IV
PORT MELLON,0-20000-0-71605,71605,Land (fixed),49.51666667,-123.4833333,129,Canada,IV
PORT STANLEY,0-124-600-4500132,4500132,Sea (fixed),42.4633,-81.2157,173,Canada,IV
PORT WELLER (AUT),0-20000-0-71432,71432,Land (fixed),43.25,-79.2167,79,Canada,IV
PORT-MENIER,0-20000-0-71810,71810,Land (fixed),49.83333333,-64.28333333,53.63,Canada,IV
PORTAGE SOUTHPORT,0-20000-0-71851,71851,Land (fixed),49.903055,-98.283806,272.7,Canada,IV
POWELL RIVER,0-20000-0-71720,71720,Land (fixed),49.8346,-124.4968,125,Canada,IV
PPER RACS-GLCORS,0-124-10010-9929000,9929000,Land (fixed),48.51683,-68.469441,5.49,Canada,IV
PRAIRIE RIVER,0-20000-0-71593,71593,Land (fixed),58.62722222,-111.6794444,211.8,Canada,IV
PRDS CACS-GSD,0-124-10010-756047,756047,Land (fixed),50.871346,-114.29348,1263.89,Canada,IV
PRENTISS,0-20000-0-71353,71353,Land (fixed),52.43333333,-113.6,965,Canada,IV
PRINCE ALBERT A,0-20000-0-71869,71869,Land (fixed),53.21666667,-105.6666667,428.2,Canada,IV
PRINCE EDWARD PT,0-124-600-4500135,4500135,Sea (fixed),43.78444,-76.86778,74,Canada,IV
PRINCE GEORGE AIRPORT AUTO,0-20000-0-71302,71302,Land (fixed),53.88333333,-122.6666667,677.88,Canada,IV
PRINCE GEORGE UA,0-20000-0-71908,71908,Land (fixed),53.9,-122.79,600.54,Canada,IV
PRINCE GEORGE,0-20000-0-71896,71896,Land (fixed),53.88416667,-122.6775,691,Canada,IV
PRINCE RUPERT AWOS,0-20000-0-71898,71898,Land (fixed),54.28611111,-130.4447222,35.4,Canada,IV
PRINCE RUPERT,0-20000-0-71022,71022,Land (fixed),54.28611111,-130.4447222,35.4,Canada,IV
PRINCETON CS,0-20000-0-71032,71032,Land (fixed),49.465159,-120.514858,696.69,Canada,IV
PSTA,0-124-10010-M173000,M173000,Land (fixed),42.657886,-81.213826,181.28,Canada,IV
PTAL WCDA-PGC,0-124-10010-M027000,M027000,Land (fixed),49.256325,-124.860938,108.72,Canada,IV
PTRF WCDA-PGC,0-124-10010-M077000,M077000,Land (fixed),48.544265,-124.413041,190.87,Canada,IV
PUKASKWA (AUT),0-20000-0-71750,71750,Land (fixed),48.607722,-86.287361,191,Canada,IV
PUNTZI MOUNTAIN (AUT),0-20000-0-71050,71050,Land (fixed),52.108869,-124.152797,910.14,Canada,IV
PWEL RACS-GLCORS,0-124-10010-M023002,M023002,Land (fixed),43.236723,-79.21966,80.64,Canada,IV
Park Mountain,0-124-15003-1F03P,1F03P,Land (fixed),50.4495,-118.619,1890,Canada,IV
Pemberton Meadows AGRI,0-124-15005-AGPM022,AGPM022,Land (fixed),50.4912,-122.966,226,Canada,IV
Penfold Creek,0-124-15003-1C23P,1C23P,Land (fixed),52.74882,-120.561,1740,Canada,IV
Penticton East AGRI,0-124-15005-AGPE010,AGPE010,Land (fixed),49.4617,-119.575,400,Canada,IV
Penticton Solar Observatory,0-124-10001-PEN,PEN,Land (fixed),49.3,-119.6,385,Canada,IV
Peyto Lower Ice,0-124-34001-157,157,Land (fixed),51.67669,-116.53399,2150,Canada,IV
Peyto Main,0-124-34001-156,156,Land (fixed),51.68549,-116.54495,2250,Canada,IV
Peyto Middle Ice,0-124-34001-160,160,Land (fixed),51.66293,-116.55754,2461,Canada,IV
Peyto Outlet New,0-124-34001-159,159,Land (fixed),51.68107,-116.55472,2150,Canada,IV
Peyto Upper Ice,0-124-34001-161,161,Land (fixed),51.6493,-116.53651,2709,Canada,IV
Pickle Lake,0-20008-0-PKL,PKL,Land (fixed),51.54000092,-90.19999695,370,Canada,IV
Pine River Gas Plant,0-124-15003-107,107,Land (fixed),55.57463,-121.921476,1113,Canada,IV
Pine River Hasler,0-124-15003-110,110,Land (fixed),55.60556,-121.973469,610,Canada,IV
Pond Inlet,0-20008-0-PON,PON,Land (fixed),72.7001,-77.9585,55,Canada,IV
Pond Inlet Riometer,0-124-10001-PON,PON,Land (fixed),72.7,-77.9,55,Canada,IV
Port Alberni Elementary,0-124-15003-263,263,Land (fixed),49.261014,-124.806628,17,Canada,IV
Port Aux Basques,0-20000-0-73026,73026,Land (fixed),47.56666667,-59.15,39,Canada,IV
Port Edwards Sunset Drive,0-124-15003-589,589,Land (fixed),54.2232,-130.29045,39,Canada,IV
Port Mellon,0-124-15003-117,117,Land (fixed),49.522778,-123.482222,3,Canada,IV
Poste de-la-Baleine Magnetic Observatory,0-124-10001-PBQ,PBQ,Land (fixed),55.277,-77.745,40,Canada,IV
Powell River James Thompson School,0-124-15003-122,122,Land (fixed),49.889299,-124.5624,125,Canada,IV
Powell River Pacifica,0-124-15003-126,126,Land (fixed),49.874167,-124.555556,45,Canada,IV
Prince Albert Glass Field,0-20000-0-73002,73002,Land (fixed),53.2,-105.6666667,425.42,Canada,IV
Prince George Exploration Place,0-124-15003-528,528,Land (fixed),53.905139,-122.734049,577,Canada,IV
Prince George Glenview School,0-124-15003-138,138,Land (fixed),53.99556,-122.77556,750,Canada,IV
Prince George Plaza 400,0-124-15003-144,144,Land (fixed),53.91472,-122.74194,588,Canada,IV
Prince George Pulp,0-124-15003-146,146,Land (fixed),53.924444,-122.686111,600,Canada,IV
Prince Rupert Fairview,0-124-15003-546,546,Land (fixed),54.292615,-130.352188,15,Canada,IV
Prince Rupert Roosevelt Park School,0-124-15003-425,425,Land (fixed),54.3064,-130.3269,80,Canada,IV
QAVVIK LAKE,0-20000-0-71583,71583,Land (fixed),68.25444444,-122.1027778,548,Canada,IV
QIKI RACS-CHS,0-124-10010-M049015,M049015,Land (fixed),67.559326,-64.033661,5.69,Canada,IV
QIKIQTARJUAQ A,0-20000-0-71338,71338,Land (fixed),67.54583333,-64.03138889,5.5,Canada,IV
QIKIQTARJUAQ CLIMATE,0-20000-0-71357,71357,Land (fixed),67.53333333,-64.01666667,3.9,Canada,IV
QUAD WCDA-PGC,0-124-10010-M067000,M067000,Land (fixed),50.132491,-125.330812,7.56,Canada,IV
QUALICUM BEACH AIRPORT,0-20000-0-71766,71766,Land (fixed),49.33333333,-124.3833333,58.2,Canada,IV
QUEBEC/JEAN LESAGE INTL,0-20000-0-71714,71714,Land (fixed),46.8,-71.36666667,59.81,Canada,IV
QUEENSTOWN,0-20000-0-71073,71073,Land (fixed),50.59777778,-112.8033333,941,Canada,IV
QUESNEL AIRPORT AUTO,0-20000-0-71779,71779,Land (fixed),53.0267,-122.5064,545.3,Canada,IV
QUESNEL AWOS,0-20000-0-71103,71103,Land (fixed),53.02611111,-122.51,545,Canada,IV
QUESNEL,0-20000-0-71192,71192,Land (fixed),53.02611111,-122.5102778,545,Canada,IV
Quesnel Johnston Avenue,0-124-15003-583,583,Land (fixed),52.969061,-122.494031,505,Canada,IV
Quilchena AGRI,0-124-15005-AGQC023,AGQC023,Land (fixed),50.17972,-120.505,316,Canada,IV
RABBIT KETTLE,0-20000-0-71980,71980,Land (fixed),61.95,-127.2,618,Canada,IV
RACE ROCKS,0-20000-0-71778,71778,Land (fixed),48.28333333,-123.5166667,7.4,Canada,IV
RADWAY AGCM,0-20000-0-71545,71545,Land (fixed),53.995,-112.8791667,625,Canada,IV
RAE LAKES,0-20000-0-71165,71165,Land (fixed),64.1,-117.3,217.52,Canada,IV
RANFURLY AUTO,0-20000-0-71637,71637,Land (fixed),53.41666667,-111.7166667,687,Canada,IV
RANKIN INLET A,0-20000-0-71083,71083,Land (fixed),62.81666667,-92.11666667,32.31,Canada,IV
RAWSON LAKE (AUT),0-124-0-71855,71855,Land (fixed),49.6642,-93.7328,435,Canada,IV
RAYMOND AGDM,0-20000-0-71536,71536,Land (fixed),49.48333333,-112.6833333,937,Canada,IV
REA POINT,0-20000-0-71983,71983,Land (fixed),75.35,-105.7,5.97,Canada,IV
RED DEER A,0-20000-0-71878,71878,Land (fixed),52.17861111,-113.8930556,904.6,Canada,IV
RED EARTH,0-20000-0-71246,71246,Land (fixed),56.55,-115.2666667,546,Canada,IV
RED LAKE A,0-20000-0-71854,71854,Land (fixed),51.06694444,-93.79305556,385.88,Canada,IV
RED PINES,0-20000-0-71634,71634,Land (fixed),47.43333333,-65.58333333,116.53,Canada,IV
REGINA INT'L A,0-20000-0-71863,71863,Land (fixed),50.43333333,-104.6666667,577.6,Canada,IV
REGINA RCS,0-20000-0-71514,71514,Land (fixed),50.426913,-104.670158,577.3,Canada,IV
REPL,0-124-10010-M139000,M139000,Land (fixed),66.52359,-86.23103,21.3,Canada,IV
RESO RACS-ESS,0-124-10010-M009002,M009002,Land (fixed),74.690811,-94.89366,28.11,Canada,IV
RESOLUTE (CAP15),0-20000-0-71649,71649,Land (fixed),74.70527778,-94.96861111,36,Canada,IV
RESOLUTE CARS,0-20000-0-71924,71924,Land (fixed),74.71694444,-94.96944444,67.68,Canada,IV
RESOLUTE CS,0-20000-0-71018,71018,Land (fixed),74.7,-94.96666667,44.98,Canada,IV
RESOLUTE UA,0-20001-0-71924,71924,Land (fixed),74.70416667,-94.96805556,46.1,Canada,IV
RESOLUTION ISLAND,0-20000-0-71972,71972,Land (fixed),61.6,-64.63333333,368.5,Canada,IV
REVELSTOKE A,0-20000-0-71685,71685,Land (fixed),50.96666667,-118.1833333,444.7,Canada,IV
REVELSTOKE AIRPORT AUTO,0-20000-0-71882,71882,Land (fixed),50.958222,-118.176277,444.7,Canada,IV
RIBSTONE SOUTH AGCM,0-20000-0-71089,71089,Land (fixed),52.58694444,-110.3427778,644,Canada,IV
RICH LAKE AGDM,0-20000-0-71349,71349,Land (fixed),54.5,-111.7,585,Canada,IV
RIDGETOWN RCS,0-20000-0-71307,71307,Land (fixed),42.45,-81.88333333,200.12,Canada,IV
RIVERCOURSE AGCM,0-20000-0-71102,71102,Land (fixed),53.01888889,-110.1019444,669,Canada,IV
RIVIERE AUX FEUILLES,0-20000-0-71743,71743,Land (fixed),57.909731,-72.976014,170.04,Canada,IV
RIVIERE-DU-LOUP,0-20000-0-71715,71715,Land (fixed),47.806084,-69.548447,145.64,Canada,IV
RNKN,0-124-10010-M129000,M129000,Land (fixed),62.813454,-92.089774,25.18,Canada,IV
ROBERTSON LAKE (AUT),0-20000-0-71490,71490,Land (fixed),65.08333333,-102.4166667,230.87,Canada,IV
ROBERVAL A,0-20000-0-71728,71728,Land (fixed),48.51666667,-72.26666667,178.6,Canada,IV
ROBLIN,0-20000-0-71553,71553,Land (fixed),51.18333333,-101.35,539.5,Canada,IV
ROCK RIVER,0-20000-0-71506,71506,Land (fixed),62.981268,-136.220924,732.36,Canada,IV
ROCKGLEN (AUT),0-20000-0-71135,71135,Land (fixed),49.16666667,-105.9666667,913.64,Canada,IV
ROCKY MTN HOUSE (AUT),0-20000-0-71928,71928,Land (fixed),52.4214,-114.9122,988.2,Canada,IV
ROLLING HILLS AGCM,0-20000-0-71105,71105,Land (fixed),50.265,-111.7011111,645,Canada,IV
ROMA,0-124-0-73104,73104,Land (fixed),56.19332,-117.452,559.53,Canada,IV
ROSALIND AGCM,0-20000-0-71202,71202,Land (fixed),52.78027778,-112.4277778,712,Canada,IV
ROSE SPIT (AUT),0-20000-0-71477,71477,Land (fixed),54.1591,-131.6613,6.6,Canada,IV
ROSEMARY AGDM,0-20000-0-71537,71537,Land (fixed),50.83333333,-112.05,714,Canada,IV
ROSETOWN EAST,0-20000-0-71510,71510,Land (fixed),51.565288,-107.923609,588.54,Canada,IV
ROSS RACS-GLCORS,0-124-10010-M023004,M023004,Land (fixed),48.833721,-87.519589,187.16,Canada,IV
ROUYN,0-20000-0-71734,71734,Land (fixed),48.2458,-79.0342,318,Canada,IV
ROWLEY ISLAND,0-20000-0-71088,71088,Land (fixed),69.08333333,-79.03333333,41,Canada,IV
ROYAL ISLAND (AUT),0-124-0-71859,71859,Land (fixed),49.4681,-94.7633,329,Canada,IV
RYCROFT AGCM,0-20000-0-71546,71546,Land (fixed),55.77666667,-118.6680556,575,Canada,IV
Redfish Creek,0-124-15003-2D14P,2D14P,Land (fixed),49.69017,-117.087,2100,Canada,IV
Resolute,0-20008-0-RSL,RSL,Land (fixed),74.71666718,-94.98332977,64,Canada,IV
Resolute Magnetic Observatory,0-124-10001-RES,RES,Land (fixed),74.69,-94.895,30,Canada,IV
Revolution Creek,0-124-15003-1A17P,1A17P,Land (fixed),53.78417,-120.375,1690,Canada,IV
SAANICHTON CFIA,0-124-0-73028,73028,Land (fixed),48.62173,-123.41,24,Canada,IV
SABLE ISLAND,0-20000-0-71600,71600,Land (fixed),43.91666667,-60,5,Canada,IV
SABLE ISLAND,0-20000-0-73025,73025,Land (fixed),43.91666667,-60,5,Canada,IV
SABLE ISLAND A,0-20000-0-71595,71595,Land (fixed),43.94611111,-59.95972222,1.2,Canada,IV
SACHS HARBOUR CLIMATE,0-20000-0-71467,71467,Land (fixed),71.98333333,-125.25,87.5,Canada,IV
SAGLEK,0-20000-0-71335,71335,Land (fixed),58.33333333,-62.58555556,500.5,Canada,IV
SAGONA ISLAND,0-20000-0-71408,71408,Land (fixed),47.36666667,-55.78333333,67,Canada,IV
SAINT JOHN A,0-20000-0-71609,71609,Land (fixed),45.31805556,-65.88555556,108.8,Canada,IV
SAINT-CAMILLE-DE-LELLIS,0-124-0-73105,73105,Land (fixed),46.49469,-70.2074,402.43,Canada,IV
SAINT-GERMAIN-DE-GRANTHAM,0-20000-0-71967,71967,Land (fixed),45.81666667,-72.53333333,76.84,Canada,IV
SAINT-MICHEL-DES-SAINTS,0-20000-0-71737,71737,Land (fixed),46.815583,-74.094028,428.9,Canada,IV
SALLUIT,0-124-0-71641,71641,Land (fixed),62.17945,-75.6703,228,Canada,IV
SALMON ARM CS,0-20000-0-71218,71218,Land (fixed),50.7,-119.2833333,350.5,Canada,IV
SANDHEADS CS,0-20000-0-71209,71209,Land (fixed),49.1059,-123.3034,11,Canada,IV
SANDSPIT AIRPORT AUTO,0-20000-0-71101,71101,Land (fixed),53.249444,-131.813138,6.5,Canada,IV
SANDSPIT,0-20000-0-71111,71111,Land (fixed),53.25416667,-131.8138889,6.4,Canada,IV
SANDY LAKE A,0-20000-0-71587,71587,Land (fixed),53.06416667,-93.34444444,289.9,Canada,IV
SANIKILUAQ,0-20000-0-71643,71643,Land (fixed),56.53333333,-79.25,34,Canada,IV
SANIRAJAK,0-20000-0-71320,71320,Land (fixed),68.76666667,-81.21666667,6.01,Canada,IV
SARNIA CLIMATE,0-20000-0-71746,71746,Land (fixed),42.98333333,-82.3,180.4,Canada,IV
SARNIA,0-20000-0-71704,71704,Land (fixed),42.99944444,-82.30888889,181.4,Canada,IV
SARTINE ISLAND (AUT),0-20000-0-71478,71478,Land (fixed),50.819384,-128.906201,105.57,Canada,IV
SASK CACS-GSD,0-124-10010-965001,965001,Land (fixed),52.196248,-106.398339,600,Canada,IV
SASKATOON DIEFENBAKER INT'L A,0-20000-0-71866,71866,Land (fixed),52.16666667,-106.7166667,504.1,Canada,IV
SASKATOON RCS,0-20000-0-71496,71496,Land (fixed),52.16666667,-106.7166667,503.44,Canada,IV
SATURNA CAPMON,0-20000-0-71914,71914,Land (fixed),48.76666667,-123.1166667,192.51,Canada,IV
SATURNA ISLAND CS,0-20000-0-71473,71473,Land (fixed),48.76666667,-123.0333333,24.11,Canada,IV
SAULT STE MARIE A,0-20000-0-71260,71260,Land (fixed),46.48333333,-84.50944444,192,Canada,IV
SAULT STE. MARIE AIRPORT,0-124-0-73070,73070,Land (fixed),46.47806,-84.5167,187,Canada,IV
SAVANNA AGCM,0-20000-0-71547,71547,Land (fixed),56.07611111,-119.3447222,703,Canada,IV
SC04 WCDA-PGC,0-124-10010-M037002,M037002,Land (fixed),48.92316,-123.704112,32.95,Canada,IV
SCH2 CACS-GSD,0-124-10010-972000,972000,Land (fixed),54.832078,-66.832614,518.51,Canada,IV
SCHEFFERVILLE A,0-20000-0-71921,71921,Land (fixed),54.80527778,-66.80527778,520.9,Canada,IV
SCHEFFERVILLE Cote-Nord,0-124-0-73075,73075,Land (fixed),54.8027,-66.8045,518.8,Canada,IV
SCHEFFERVILLE,0-20000-0-71828,71828,Land (fixed),54.8,-66.8,521,Canada,IV
SCHULER AGDM,0-20000-0-71269,71269,Land (fixed),50.30694444,-110.0905556,800,Canada,IV
SCOTT CDA,0-20000-0-71489,71489,Land (fixed),52.35,-108.8333333,657.11,Canada,IV
SECHELT,0-20000-0-71638,71638,Land (fixed),49.458,-123.7153,86.2,Canada,IV
SEDALIA AGCM,0-20000-0-71399,71399,Land (fixed),51.59027778,-110.7547222,755,Canada,IV
SENTRY SHOAL,0-124-600-4600131,4600131,Sea (fixed),49.906,-124.985,0,Canada,IV
SEPT-ILES UA,0-20000-0-71811,71811,Land (fixed),50.21666667,-66.25,53.1,Canada,IV
SEPT-ILES,0-20000-0-71279,71279,Land (fixed),50.21666667,-66.23333333,50.5,Canada,IV
SEVEN PERSONS AGDM,0-20000-0-71525,71525,Land (fixed),49.91666667,-110.9166667,766,Canada,IV
SHAWINIGAN,0-20000-0-71370,71370,Land (fixed),46.5635,-72.7333,110,Canada,IV
SHE2 RACS-ESS,0-124-10010-M061001,M061001,Land (fixed),46.220681,-64.552009,4.27,Canada,IV
SHEARWATER JETTY,0-124-12001-71330,71330,Land (fixed),44.62806,-63.5225,4.5,Canada,IV
SHEARWATER RCS,0-20000-0-71264,71264,Land (fixed),44.61666667,-63.5,24,Canada,IV
SHELBURNE SANDY POINT,0-124-0-73015,73015,Land (fixed),43.75303,-65.3079,46.03,Canada,IV
SHEPHERD BAY A,0-20000-0-71911,71911,Land (fixed),68.81666667,-93.43333333,42.7,Canada,IV
SHERBROOKE,0-20000-0-71610,71610,Land (fixed),45.43861111,-71.69138889,241.4,Canada,IV
SHERINGHAM POINT,0-20000-0-71780,71780,Land (fixed),48.3768,-123.921,6.9,Canada,IV
SHILO,0-20000-0-71853,71853,Land (fixed),49.78277778,-99.64305556,375.2,Canada,IV
SHINGLE POINT A,0-20000-0-71968,71968,Land (fixed),68.95,-137.2166667,49.4,Canada,IV
